[
  {
    "name": "United World College of South East Asia (East)",
    "lat": 1.3575,
    "lon": 103.945,
    "level": "INTERNATIONAL",
    "address": "1 Tampines Street 73, Singapore 528704"
  },
  {
    "name": "Overseas Family School",
    "lat": 1.382,
    "lon": 103.9389,
    "level": "INTERNATIONAL",
    "address": "81 Pasir Ris Heights, Singapore 519292"
  },
  {
    "name": "St. Joseph's Institution International",
    "lat": 1.3359,
    "lon": 103.8398,
    "level": "INTERNATIONAL",
    "address": "490 Thomson Rd, Singapore 298191"
  },
  {
    "name": "Stamford American International School",
    "lat": 1.336974,
    "lon": 103.869709,
    "level": "INTERNATIONAL",
    "address": "1 Woodleigh Lane, Singapore 357684"
  },
  {
    "name": "Australian International School",
    "lat": 1.347707,
    "lon": 103.859409,
    "level": "INTERNATIONAL",
    "address": "1 Lorong Chuan, Singapore 556818"
  },
  {
    "name": "United World College of South East Asia (Dover)",
    "lat": 1.302979,
    "lon": 103.777118,
    "level": "INTERNATIONAL",
    "address": "1207 Dover Road, Singapore 139654"
  },
  {
    "name": "Singapore American School",
    "lat": 1.425383,
    "lon": 103.774499,
    "level": "INTERNATIONAL",
    "address": "40 Woodlands Street 41, Singapore 738547"
  },
  {
    "name": "Tanglin Trust School",
    "lat": 1.29689,
    "lon": 103.791991,
    "level": "INTERNATIONAL",
    "address": "95 Portsdown Road, Singapore 139299"
  },
  {
    "name": "Dulwich College (Singapore)",
    "lat": 1.351481,
    "lon": 103.738386,
    "level": "INTERNATIONAL",
    "address": "71 Bukit Batok West Avenue 8, Singapore 658966"
  },
  {
    "name": "Canadian International School (Lakeside)",
    "lat": 1.345093,
    "lon": 103.727429,
    "level": "INTERNATIONAL",
    "address": "7 Jurong West Street 41, Singapore 649414"
  },
  {
    "name": "Nexus International School",
    "lat": 1.320803,
    "lon": 103.878729,
    "level": "INTERNATIONAL",
    "address": "1 Aljunied Walk, Singapore 387293"
  },
  {
    "name": "German European School Singapore (GESS)",
    "lat": 1.365383,
    "lon": 103.773181,
    "level": "INTERNATIONAL",
    "address": "2 Dairy Farm Lane, Singapore 677621"
  },
  {
    "name": "International French School (IFS)",
    "lat": 1.370251,
    "lon": 103.866541,
    "level": "INTERNATIONAL",
    "address": "2900 Ang Mo Kio Avenue 3, Singapore 569935"
  },
  {
    "name": "Global Indian International School (SMART Campus)",
    "lat": 1.315963,
    "lon": 103.921303,
    "level": "INTERNATIONAL",
    "address": "82 Cheviot Hill, Singapore 459663"
  },
  {
    "name": "XCL World Academy (XWA)",
    "lat": 1.424178,
    "lon": 103.850354,
    "level": "INTERNATIONAL",
    "address": "2 Yishun Street 42, Singapore 768039"
  },
  {
    "name": "Dover Court International School",
    "lat": 1.30552,
    "lon": 103.779042,
    "level": "INTERNATIONAL",
    "address": "301 Dover Road, Singapore 139644"
  },
  {
    "name": "Chatsworth International School",
    "lat": 1.302547,
    "lon": 103.838472,
    "level": "INTERNATIONAL",
    "address": "37 Emerald Hill Road, Singapore 229313"
  },
  {
    "name": "One World International School (Nanyang Campus)",
    "lat": 1.347793,
    "lon": 103.695841,
    "level": "INTERNATIONAL",
    "address": "21 Jurong West Street 81, Singapore 649075"
  },
  {
    "name": "ADMIRALTY PRIMARY SCHOOL",
    "lat": 1.4426347903311,
    "lon": 103.800040119743,
    "level": "PRIMARY",
    "address": "11 Woodlands Circle, Singapore 738907"
  },
  {
    "name": "ADMIRALTY SECONDARY SCHOOL",
    "lat": 1.44589068910993,
    "lon": 103.802398196596,
    "level": "SECONDARY (S1-S5)",
    "address": "31 Woodlands Crescent, Singapore 737916"
  },
  {
    "name": "AHMAD IBRAHIM PRIMARY SCHOOL",
    "lat": 1.43315271543517,
    "lon": 103.832942401086,
    "level": "PRIMARY",
    "address": "10 Yishun Street 11, Singapore 768643"
  },
  {
    "name": "AHMAD IBRAHIM SECONDARY SCHOOL",
    "lat": 1.43605975368804,
    "lon": 103.829718690077,
    "level": "SECONDARY (S1-S5)",
    "address": "751 Yishun Avenue 7, Singapore 768928"
  },
  {
    "name": "AI TONG SCHOOL",
    "lat": 1.3605834338904,
    "lon": 103.833020333986,
    "level": "PRIMARY",
    "address": "100 Bright Hill Drive, Singapore 579646"
  },
  {
    "name": "ALEXANDRA PRIMARY SCHOOL",
    "lat": 1.29133439161334,
    "lon": 103.824424680531,
    "level": "PRIMARY",
    "address": "2A Prince Charles Crescent, Singapore 159016"
  },
  {
    "name": "ANCHOR GREEN PRIMARY SCHOOL",
    "lat": 1.39036998654612,
    "lon": 103.887165375933,
    "level": "PRIMARY",
    "address": "31 Anchorvale Drive, Singapore 544969"
  },
  {
    "name": "ANDERSON PRIMARY SCHOOL",
    "lat": 1.38419941907925,
    "lon": 103.841411716006,
    "level": "PRIMARY",
    "address": "19 Ang Mo Kio Ave 9, Singapore 569785"
  },
  {
    "name": "ANDERSON SECONDARY SCHOOL",
    "lat": 1.37434001701177,
    "lon": 103.851554107068,
    "level": "SECONDARY (S1-S5)",
    "address": "10 Ang Mo Kio Street 53, Singapore 569206"
  },
  {
    "name": "ANDERSON SERANGOON JUNIOR COLLEGE",
    "lat": 1.36504342002442,
    "lon": 103.887038809373,
    "level": "JUNIOR COLLEGE",
    "address": "1033 Upper Serangoon Road, Singapore 534768"
  },
  {
    "name": "ANG MO KIO PRIMARY SCHOOL",
    "lat": 1.36932176584608,
    "lon": 103.839630858752,
    "level": "PRIMARY",
    "address": "20 Ang Mo Kio Avenue 3, Singapore 569920"
  },
  {
    "name": "ANG MO KIO SECONDARY SCHOOL",
    "lat": 1.36733710171069,
    "lon": 103.842154973672,
    "level": "SECONDARY (S1-S5)",
    "address": "6 Ang Mo Kio Street 22, Singapore 569362"
  },
  {
    "name": "ANGLICAN HIGH SCHOOL",
    "lat": 1.33058126205128,
    "lon": 103.941082513081,
    "level": "SECONDARY (S1-S4)",
    "address": "600 Upper Changi Road, Singapore 487012"
  },
  {
    "name": "ANGLO-CHINESE JUNIOR COLLEGE",
    "lat": 1.30304255193392,
    "lon": 103.785358436408,
    "level": "JUNIOR COLLEGE",
    "address": "25 Dover Close East, Singapore 139745"
  },
  {
    "name": "ANGLO-CHINESE SCHOOL (BARKER ROAD)",
    "lat": 1.31961649151328,
    "lon": 103.835772689988,
    "level": "SECONDARY (S1-S5)",
    "address": "60 Barker Road, Singapore 309919"
  },
  {
    "name": "ANGLO-CHINESE SCHOOL (JUNIOR)",
    "lat": 1.30935041274966,
    "lon": 103.840950265464,
    "level": "PRIMARY",
    "address": "16 Winstedt Road, Singapore 227988"
  },
  {
    "name": "ANGLO-CHINESE SCHOOL (PRIMARY)",
    "lat": 1.31837054523521,
    "lon": 103.835609732354,
    "level": "PRIMARY",
    "address": "50 Barker Road, Singapore 309918"
  },
  {
    "name": "ANGSANA PRIMARY SCHOOL",
    "lat": 1.36360590588314,
    "lon": 103.9389409004,
    "level": "PRIMARY",
    "address": "51 Tampines Street 61, Singapore 528565"
  },
  {
    "name": "ASSUMPTION ENGLISH SCHOOL",
    "lat": 1.36838160662857,
    "lon": 103.766687526556,
    "level": "SECONDARY (S1-S5)",
    "address": "622 Upper Bukit Timah Road, Singapore 678117"
  },
  {
    "name": "ASSUMPTION PATHWAY SCHOOL",
    "lat": 1.3696707043227,
    "lon": 103.765959130581,
    "level": "SECONDARY (S1-S4)",
    "address": "30 Cashew Road, Singapore 679697"
  },
  {
    "name": "BARTLEY SECONDARY SCHOOL",
    "lat": 1.33995415587811,
    "lon": 103.882806211705,
    "level": "SECONDARY (S1-S5)",
    "address": "10 Jalan Bunga Rampai, Singapore 538403"
  },
  {
    "name": "BEACON PRIMARY SCHOOL",
    "lat": 1.38394936211823,
    "lon": 103.773632022975,
    "level": "PRIMARY",
    "address": "36 Bukit Panjang Ring Road, Singapore 679944"
  },
  {
    "name": "BEATTY SECONDARY SCHOOL",
    "lat": 1.341790284928,
    "lon": 103.852280842345,
    "level": "SECONDARY (S1-S5)",
    "address": "1 Toa Payoh North, Singapore 318990"
  },
  {
    "name": "BEDOK GREEN PRIMARY SCHOOL",
    "lat": 1.32344593287992,
    "lon": 103.937878976352,
    "level": "PRIMARY",
    "address": "1 Bedok South Ave 2, Singapore 469317"
  },
  {
    "name": "BEDOK GREEN SECONDARY SCHOOL",
    "lat": 1.33451947288431,
    "lon": 103.935028383346,
    "level": "SECONDARY (S1-S5)",
    "address": "360 Bedok North Ave 3, Singapore 469722"
  },
  {
    "name": "BEDOK SOUTH SECONDARY SCHOOL",
    "lat": 1.32513655159184,
    "lon": 103.950989139261,
    "level": "SECONDARY (S1-S5)",
    "address": "1 Jalan Langgar Bedok, Singapore 468585"
  },
  {
    "name": "BEDOK VIEW SECONDARY SCHOOL",
    "lat": 1.32415704029686,
    "lon": 103.943776245024,
    "level": "SECONDARY (S1-S5)",
    "address": "6 Bedok South Avenue 3, Singapore 469293"
  },
  {
    "name": "BENDEMEER PRIMARY SCHOOL",
    "lat": 1.32181250780475,
    "lon": 103.865404167629,
    "level": "PRIMARY",
    "address": "91 Bendemeer Road, Singapore 339948"
  },
  {
    "name": "BENDEMEER SECONDARY SCHOOL",
    "lat": 1.32434843114787,
    "lon": 103.860518349544,
    "level": "SECONDARY (S1-S5)",
    "address": "1 St Wilfred Road, Singapore 327919"
  },
  {
    "name": "BLANGAH RISE PRIMARY SCHOOL",
    "lat": 1.27612047924037,
    "lon": 103.808628535239,
    "level": "PRIMARY",
    "address": "91 Telok Blangah Heights, Singapore 109100"
  },
  {
    "name": "BOON LAY GARDEN PRIMARY SCHOOL",
    "lat": 1.34284013791617,
    "lon": 103.712858381937,
    "level": "PRIMARY",
    "address": "20 Boon Lay Drive, Singapore 649930"
  },
  {
    "name": "BOON LAY SECONDARY SCHOOL",
    "lat": 1.34272216334333,
    "lon": 103.701891453912,
    "level": "SECONDARY (S1-S5)",
    "address": "11 Jurong West Street 65, Singapore 648354"
  },
  {
    "name": "BOWEN SECONDARY SCHOOL",
    "lat": 1.37035994436209,
    "lon": 103.877659577677,
    "level": "SECONDARY (S1-S5)",
    "address": "2 Lorong Napiri, Singapore 547529"
  },
  {
    "name": "BROADRICK SECONDARY SCHOOL",
    "lat": 1.30705061123433,
    "lon": 103.886917922608,
    "level": "SECONDARY (S1-S5)",
    "address": "61 Dakota Crescent, Singapore 399935"
  },
  {
    "name": "BUKIT BATOK SECONDARY SCHOOL",
    "lat": 1.34849111079052,
    "lon": 103.74087370482,
    "level": "SECONDARY (S1-S5)",
    "address": "50 Bukit Batok West Ave 8, Singapore 658962"
  },
  {
    "name": "BUKIT MERAH SECONDARY SCHOOL",
    "lat": 1.28569283064288,
    "lon": 103.813438929393,
    "level": "SECONDARY (S1-S5)",
    "address": "10 Lengkok Bahru, Singapore 159050"
  },
  {
    "name": "BUKIT PANJANG GOVT. HIGH SCHOOL",
    "lat": 1.38224243360043,
    "lon": 103.738361221869,
    "level": "SECONDARY (S1-S5)",
    "address": "7 Choa Chu Kang Ave 4, Singapore 689809"
  },
  {
    "name": "BUKIT PANJANG PRIMARY SCHOOL",
    "lat": 1.37350089986584,
    "lon": 103.769417337654,
    "level": "PRIMARY",
    "address": "109 Cashew Road, Singapore 679676"
  },
  {
    "name": "BUKIT TIMAH PRIMARY SCHOOL",
    "lat": 1.3377498622588,
    "lon": 103.766855344779,
    "level": "PRIMARY",
    "address": "111 Lorong Kismis, Singapore 598112"
  },
  {
    "name": "BUKIT VIEW PRIMARY SCHOOL",
    "lat": 1.34586054788695,
    "lon": 103.75366641455,
    "level": "PRIMARY",
    "address": "18 Bukit Batok Street 21, Singapore 659634"
  },
  {
    "name": "BUKIT VIEW SECONDARY SCHOOL",
    "lat": 1.3457330554294,
    "lon": 103.752226593984,
    "level": "SECONDARY (S1-S5)",
    "address": "16 Bukit Batok Street 21, Singapore 659633"
  },
  {
    "name": "CANBERRA PRIMARY SCHOOL",
    "lat": 1.45125024371543,
    "lon": 103.815858858929,
    "level": "PRIMARY",
    "address": "21 Admiralty Drive, Singapore 757714"
  },
  {
    "name": "CANBERRA SECONDARY SCHOOL",
    "lat": 1.45319086315972,
    "lon": 103.814203583818,
    "level": "SECONDARY (S1-S5)",
    "address": "51 Sembawang Drive, Singapore 757699"
  },
  {
    "name": "CANOSSA CATHOLIC PRIMARY SCHOOL",
    "lat": 1.32664424544839,
    "lon": 103.882227964852,
    "level": "PRIMARY",
    "address": "1 Sallim Road, Singapore 387621"
  },
  {
    "name": "CANTONMENT PRIMARY SCHOOL",
    "lat": 1.27547252623201,
    "lon": 103.839962631748,
    "level": "PRIMARY",
    "address": "1 Cantonment Close, Singapore 88256"
  },
  {
    "name": "CASUARINA PRIMARY SCHOOL",
    "lat": 1.37246063927999,
    "lon": 103.957020286115,
    "level": "PRIMARY",
    "address": "30 Pasir Ris St 41, Singapore 518935"
  },
  {
    "name": "CATHOLIC JUNIOR COLLEGE",
    "lat": 1.32455605783219,
    "lon": 103.835028842353,
    "level": "JUNIOR COLLEGE",
    "address": "129 Whitley Road, Singapore 297822"
  },
  {
    "name": "CEDAR GIRLS' SECONDARY SCHOOL",
    "lat": 1.33375800216334,
    "lon": 103.873933064886,
    "level": "SECONDARY (S1-S4)",
    "address": "1 Cedar Avenue, Singapore 349692"
  },
  {
    "name": "CEDAR PRIMARY SCHOOL",
    "lat": 1.33566084356265,
    "lon": 103.87562006259,
    "level": "PRIMARY",
    "address": "15 Cedar Avenue, Singapore 349700"
  },
  {
    "name": "CHANGKAT CHANGI SECONDARY SCHOOL",
    "lat": 1.33950630072876,
    "lon": 103.953245525564,
    "level": "SECONDARY (S1-S5)",
    "address": "23 Simei St 3, Singapore 529894"
  },
  {
    "name": "CHANGKAT PRIMARY SCHOOL",
    "lat": 1.34023163951633,
    "lon": 103.952080114035,
    "level": "PRIMARY",
    "address": "11 Simei St 3, Singapore 529896"
  },
  {
    "name": "CHIJ (KATONG) PRIMARY",
    "lat": 1.30648535277087,
    "lon": 103.911105620496,
    "level": "PRIMARY",
    "address": "17 Martia Road, Singapore 424821"
  },
  {
    "name": "CHIJ (KELLOCK)",
    "lat": 1.30648535277087,
    "lon": 103.911105620496,
    "level": "PRIMARY",
    "address": "1 Bukit Teresa Road, Singapore 99757"
  },
  {
    "name": "CHIJ KATONG CONVENT",
    "lat": 1.30644268034894,
    "lon": 103.917144350028,
    "level": "SECONDARY (S1-S5)",
    "address": "346 Marine Terrace, Singapore 449150"
  },
  {
    "name": "CHIJ OUR LADY OF GOOD COUNSEL",
    "lat": 1.35742952269615,
    "lon": 103.864009397373,
    "level": "PRIMARY",
    "address": "2C Burghley Drive, Singapore 558979"
  },
  {
    "name": "CHIJ OUR LADY OF THE NATIVITY",
    "lat": 1.37330297140128,
    "lon": 103.897575728303,
    "level": "PRIMARY",
    "address": "1257 Upper Serangoon Road, Singapore 534793"
  },
  {
    "name": "CHIJ OUR LADY QUEEN OF PEACE",
    "lat": 1.366603668561,
    "lon": 103.767412204602,
    "level": "PRIMARY",
    "address": "4 Chestnut Drive, Singapore 679287"
  },
  {
    "name": "CHIJ PRIMARY (TOA PAYOH)",
    "lat": 1.33275264711587,
    "lon": 103.841847263786,
    "level": "PRIMARY",
    "address": "628 Lorong 1 Toa Payoh, Singapore 319765"
  },
  {
    "name": "CHIJ SECONDARY (TOA PAYOH)",
    "lat": 1.33246079948303,
    "lon": 103.843271625083,
    "level": "SECONDARY (S1-S5)",
    "address": "626 Lorong 1 Toa Payoh, Singapore 319764"
  },
  {
    "name": "CHIJ ST. JOSEPH'S CONVENT",
    "lat": 1.39175222260369,
    "lon": 103.902464991543,
    "level": "SECONDARY (S1-S5)",
    "address": "62 Sengkang East Way, Singapore 548595"
  },
  {
    "name": "CHIJ ST. THERESA'S CONVENT",
    "lat": 1.27535177510054,
    "lon": 103.822440701642,
    "level": "SECONDARY (S1-S5)",
    "address": "160 Lower Delta Road, Singapore 99138"
  },
  {
    "name": "CHONGFU SCHOOL",
    "lat": 1.43839562897006,
    "lon": 103.839309173817,
    "level": "PRIMARY",
    "address": "170 Yishun Avenue 6, Singapore 768959"
  },
  {
    "name": "CHONGZHENG PRIMARY SCHOOL",
    "lat": 1.35061130568554,
    "lon": 103.951317297552,
    "level": "PRIMARY",
    "address": "1 Tampines Street 21, Singapore 529392"
  },
  {
    "name": "CHRIST CHURCH SECONDARY SCHOOL",
    "lat": 1.42656780901455,
    "lon": 103.793451105242,
    "level": "SECONDARY (S1-S5)",
    "address": "20 Woodlands Drive 17, Singapore 737924"
  },
  {
    "name": "CHUA CHU KANG PRIMARY SCHOOL",
    "lat": 1.37775890093367,
    "lon": 103.741832917421,
    "level": "PRIMARY",
    "address": "20 Choa Chu Kang Avenue 2, Singapore 689905"
  },
  {
    "name": "CHUA CHU KANG SECONDARY SCHOOL",
    "lat": 1.38333422637073,
    "lon": 103.75510327583,
    "level": "SECONDARY (S1-S5)",
    "address": "31 Teck Whye Crescent, Singapore 688848"
  },
  {
    "name": "CHUNG CHENG HIGH SCHOOL (MAIN)",
    "lat": 1.30509154753048,
    "lon": 103.891653229373,
    "level": "SECONDARY (S1-S4)",
    "address": "50 Goodman Road, Singapore 439012"
  },
  {
    "name": "CHUNG CHENG HIGH SCHOOL (YISHUN)",
    "lat": 1.41922603586175,
    "lon": 103.837390782849,
    "level": "SECONDARY (S1-S5)",
    "address": "11 Yishun Street 61, Singapore 768547"
  },
  {
    "name": "CLEMENTI PRIMARY SCHOOL",
    "lat": 1.31506321827875,
    "lon": 103.763144493687,
    "level": "PRIMARY",
    "address": "8 Clementi Ave 3, Singapore 129903"
  },
  {
    "name": "CLEMENTI TOWN SECONDARY SCHOOL",
    "lat": 1.31553912945073,
    "lon": 103.762020598524,
    "level": "SECONDARY (S1-S5)",
    "address": "10 Clementi Ave 3, Singapore 129904"
  },
  {
    "name": "COMMONWEALTH SECONDARY SCHOOL",
    "lat": 1.31920395934801,
    "lon": 103.745637393049,
    "level": "SECONDARY (S1-S5)",
    "address": "698 West Coast Road, Singapore 608784"
  },
  {
    "name": "COMPASSVALE PRIMARY SCHOOL",
    "lat": 1.39444529636566,
    "lon": 103.897812229905,
    "level": "PRIMARY",
    "address": "21 Compassvale St, Singapore 545091"
  },
  {
    "name": "COMPASSVALE SECONDARY SCHOOL",
    "lat": 1.39614083952009,
    "lon": 103.899847164494,
    "level": "SECONDARY (S1-S5)",
    "address": "51 Compassvale Crescent, Singapore 545083"
  },
  {
    "name": "CONCORD PRIMARY SCHOOL",
    "lat": 1.38026516111464,
    "lon": 103.736554295636,
    "level": "PRIMARY",
    "address": "3 Choa Chu Kang Ave 4, Singapore 689814"
  },
  {
    "name": "CORPORATION PRIMARY SCHOOL",
    "lat": 1.35148548772662,
    "lon": 103.707578404944,
    "level": "PRIMARY",
    "address": "31 Jurong West Street 24, Singapore 648347"
  },
  {
    "name": "CRESCENT GIRLS' SCHOOL",
    "lat": 1.29331947077104,
    "lon": 103.817544461755,
    "level": "SECONDARY (S1-S4)",
    "address": "357 Tanglin Road, Singapore 247961"
  },
  {
    "name": "CREST SECONDARY SCHOOL",
    "lat": 1.3431198045076,
    "lon": 103.742628105304,
    "level": "SECONDARY (S1-S4)",
    "address": "561 Jurong East Street 24, Singapore 609561"
  },
  {
    "name": "DAMAI PRIMARY SCHOOL",
    "lat": 1.33524602829747,
    "lon": 103.921286435321,
    "level": "PRIMARY",
    "address": "52 Bedok Reservoir Crescent, Singapore 479226"
  },
  {
    "name": "DAMAI SECONDARY SCHOOL",
    "lat": 1.33692798510393,
    "lon": 103.927091653438,
    "level": "SECONDARY (S1-S5)",
    "address": "4800 Bedok Reservoir Road, Singapore 479229"
  },
  {
    "name": "DAZHONG PRIMARY SCHOOL",
    "lat": 1.3591797447277,
    "lon": 103.74847210784,
    "level": "PRIMARY",
    "address": "35 Bukit Batok Street 31, Singapore 659441"
  },
  {
    "name": "DE LA SALLE SCHOOL",
    "lat": 1.3947078296399,
    "lon": 103.743201812831,
    "level": "PRIMARY",
    "address": "11 Choa Chu Kang St 52, Singapore 689285"
  },
  {
    "name": "DEYI SECONDARY SCHOOL",
    "lat": 1.36599702567717,
    "lon": 103.852545772422,
    "level": "SECONDARY (S1-S5)",
    "address": "1 Ang Mo Kio Street 42, Singapore 569277"
  },
  {
    "name": "DUNEARN SECONDARY SCHOOL",
    "lat": 1.36357900792871,
    "lon": 103.74472109107,
    "level": "SECONDARY (S1-S5)",
    "address": "21 Bukit Batok West Avenue 2, Singapore 659204"
  },
  {
    "name": "DUNMAN SECONDARY SCHOOL",
    "lat": 1.36065258337022,
    "lon": 103.956213906966,
    "level": "SECONDARY (S1-S5)",
    "address": "21 Tampines Street 45, Singapore 529093"
  },
  {
    "name": "EAST SPRING PRIMARY SCHOOL",
    "lat": 1.35268400746357,
    "lon": 103.961676849165,
    "level": "PRIMARY",
    "address": "31 Tampines St 33, Singapore 529258"
  },
  {
    "name": "EAST SPRING SECONDARY SCHOOL",
    "lat": 1.35622508992581,
    "lon": 103.960640700298,
    "level": "SECONDARY (S1-S5)",
    "address": "30 Tampines Street 34, Singapore 529231"
  },
  {
    "name": "EDGEFIELD PRIMARY SCHOOL",
    "lat": 1.40009139510996,
    "lon": 103.907847599114,
    "level": "PRIMARY",
    "address": "41 Edgefield Plains, Singapore 828869"
  },
  {
    "name": "EDGEFIELD SECONDARY SCHOOL",
    "lat": 1.40059309981824,
    "lon": 103.902687385465,
    "level": "SECONDARY (S1-S5)",
    "address": "36 Punggol Field, Singapore 828814"
  },
  {
    "name": "ELIAS PARK PRIMARY SCHOOL",
    "lat": 1.37505696315817,
    "lon": 103.945289416873,
    "level": "PRIMARY",
    "address": "11 Pasir Ris Street 52, Singapore 518866"
  },
  {
    "name": "ENDEAVOUR PRIMARY SCHOOL",
    "lat": 1.45388170417263,
    "lon": 103.817174701639,
    "level": "PRIMARY",
    "address": "10 Admiralty Link, Singapore 757521"
  },
  {
    "name": "EUNOIA JUNIOR COLLEGE",
    "lat": 1.36213757183547,
    "lon": 103.841286169122,
    "level": "JUNIOR COLLEGE",
    "address": "2 Sin Ming Place, Singapore 573838"
  },
  {
    "name": "EVERGREEN PRIMARY SCHOOL",
    "lat": 1.44414835451585,
    "lon": 103.794545295922,
    "level": "PRIMARY",
    "address": "31 Woodlands Circle, Singapore 738908"
  },
  {
    "name": "EVERGREEN SECONDARY SCHOOL",
    "lat": 1.44149131273737,
    "lon": 103.794137756171,
    "level": "SECONDARY (S1-S5)",
    "address": "11 Woodlands Street 83, Singapore 738489"
  },
  {
    "name": "FAIRFIELD METHODIST SCHOOL (PRIMARY)",
    "lat": 1.30100441916733,
    "lon": 103.785455606827,
    "level": "PRIMARY",
    "address": "100 Dover Road, Singapore 139648"
  },
  {
    "name": "FAIRFIELD METHODIST SCHOOL (SECONDARY)",
    "lat": 1.30163374395823,
    "lon": 103.784099647149,
    "level": "SECONDARY (S1-S5)",
    "address": "102 Dover Road, Singapore 139649"
  },
  {
    "name": "FARRER PARK PRIMARY SCHOOL",
    "lat": 1.31236867681371,
    "lon": 103.850766402965,
    "level": "PRIMARY",
    "address": "2 Farrer Park Road, Singapore 217567"
  },
  {
    "name": "FENGSHAN PRIMARY SCHOOL",
    "lat": 1.32980598760785,
    "lon": 103.931710293058,
    "level": "PRIMARY",
    "address": "307 Bedok North Road, Singapore 469680"
  },
  {
    "name": "FERN GREEN PRIMARY SCHOOL",
    "lat": 1.39726966050479,
    "lon": 103.880330305684,
    "level": "PRIMARY",
    "address": "70 Fernvale Link   Fern Green Primary School, Singapore 797538"
  },
  {
    "name": "FERNVALE PRIMARY SCHOOL",
    "lat": 1.39030227963797,
    "lon": 103.874445458032,
    "level": "PRIMARY",
    "address": "1 Fernvale Lane, Singapore 797701"
  },
  {
    "name": "FIRST TOA PAYOH PRIMARY SCHOOL",
    "lat": 1.34032299499938,
    "lon": 103.855529906182,
    "level": "PRIMARY",
    "address": "7 Lorong 8 Toa Payoh, Singapore 319252"
  },
  {
    "name": "FRONTIER PRIMARY SCHOOL",
    "lat": 1.33641298743234,
    "lon": 103.69970173931,
    "level": "PRIMARY",
    "address": "20 Jurong West Street 61, Singapore 648200"
  },
  {
    "name": "FUCHUN PRIMARY SCHOOL",
    "lat": 1.43047990810126,
    "lon": 103.778192944298,
    "level": "PRIMARY",
    "address": "23 Woodlands Avenue 1, Singapore 739063"
  },
  {
    "name": "FUHUA PRIMARY SCHOOL",
    "lat": 1.33659726465816,
    "lon": 103.736089481883,
    "level": "PRIMARY",
    "address": "65 Jurong East Street 13, Singapore 609647"
  },
  {
    "name": "FUHUA SECONDARY SCHOOL",
    "lat": 1.34701408913756,
    "lon": 103.72652089832,
    "level": "SECONDARY (S1-S5)",
    "address": "5 Jurong West Street 41, Singapore 649410"
  },
  {
    "name": "GAN ENG SENG PRIMARY SCHOOL",
    "lat": 1.28559516494962,
    "lon": 103.815547410064,
    "level": "PRIMARY",
    "address": "100 Redhill Close, Singapore 158901"
  },
  {
    "name": "GAN ENG SENG SCHOOL",
    "lat": 1.28907114485773,
    "lon": 103.823733673089,
    "level": "SECONDARY (S1-S5)",
    "address": "1 Henderson Road, Singapore 159561"
  },
  {
    "name": "GEYLANG METHODIST SCHOOL (PRIMARY)",
    "lat": 1.31814416827374,
    "lon": 103.883628501601,
    "level": "PRIMARY",
    "address": "4 Geylang East Central, Singapore 389706"
  },
  {
    "name": "GEYLANG METHODIST SCHOOL (SECONDARY)",
    "lat": 1.31764900474601,
    "lon": 103.882661129303,
    "level": "SECONDARY (S1-S5)",
    "address": "2 Geylang East Central, Singapore 389705"
  },
  {
    "name": "GONGSHANG PRIMARY SCHOOL",
    "lat": 1.35711606790292,
    "lon": 103.949144797277,
    "level": "PRIMARY",
    "address": "1 Tampines Street 42, Singapore 529176"
  },
  {
    "name": "GREENDALE PRIMARY SCHOOL",
    "lat": 1.39648195114256,
    "lon": 103.91233462071,
    "level": "PRIMARY",
    "address": "50 Edgedale Plains, Singapore 828848"
  },
  {
    "name": "GREENDALE SECONDARY SCHOOL",
    "lat": 1.39696019936894,
    "lon": 103.91170014084,
    "level": "SECONDARY (S1-S5)",
    "address": "51 Edgedale Plains, Singapore 828866"
  },
  {
    "name": "GREENRIDGE PRIMARY SCHOOL",
    "lat": 1.3858892193692,
    "lon": 103.767794469258,
    "level": "PRIMARY",
    "address": "11 Jelapang Road, Singapore 677744"
  },
  {
    "name": "GREENRIDGE SECONDARY SCHOOL",
    "lat": 1.375600053443,
    "lon": 103.763998914082,
    "level": "SECONDARY (S1-S5)",
    "address": "31 Gangsa Road, Singapore 678972"
  },
  {
    "name": "GREENWOOD PRIMARY SCHOOL",
    "lat": 1.43989958331782,
    "lon": 103.804725587384,
    "level": "PRIMARY",
    "address": "11 Woodlands  Dr  62, Singapore 737942"
  },
  {
    "name": "GUANGYANG SECONDARY SCHOOL",
    "lat": 1.34440943525695,
    "lon": 103.850212163078,
    "level": "SECONDARY (S1-S5)",
    "address": "8 Bishan Street 12, Singapore 579807"
  },
  {
    "name": "HAI SING CATHOLIC SCHOOL",
    "lat": 1.3743371707478,
    "lon": 103.954544548905,
    "level": "SECONDARY (S1-S5)",
    "address": "9 Pasir Ris Drive 6, Singapore 519421"
  },
  {
    "name": "HAIG GIRLS' SCHOOL",
    "lat": 1.31194344271383,
    "lon": 103.902902557195,
    "level": "PRIMARY",
    "address": "51 Koon Seng Road, Singapore 427072"
  },
  {
    "name": "HENRY PARK PRIMARY SCHOOL",
    "lat": 1.31667646178347,
    "lon": 103.784296227747,
    "level": "PRIMARY",
    "address": "1 Holland Grove Road, Singapore 278790"
  },
  {
    "name": "HILLGROVE SECONDARY SCHOOL",
    "lat": 1.35273576615912,
    "lon": 103.752986488399,
    "level": "SECONDARY (S1-S5)",
    "address": "10 Bukit Batok Street 52, Singapore 659250"
  },
  {
    "name": "HOLY INNOCENTS' HIGH SCHOOL",
    "lat": 1.37154508822261,
    "lon": 103.896398814264,
    "level": "SECONDARY (S1-S5)",
    "address": "1191 Upper Serangoon Road, Singapore 534786"
  },
  {
    "name": "HOLY INNOCENTS' PRIMARY SCHOOL",
    "lat": 1.36693830877349,
    "lon": 103.894114899795,
    "level": "PRIMARY",
    "address": "5 Lorong Low Koon, Singapore 536451"
  },
  {
    "name": "HONG WEN SCHOOL",
    "lat": 1.32175999964553,
    "lon": 103.857628468881,
    "level": "PRIMARY",
    "address": "30 Towner Road, Singapore 327829"
  },
  {
    "name": "HORIZON PRIMARY SCHOOL",
    "lat": 1.399550034492,
    "lon": 103.913404855665,
    "level": "PRIMARY",
    "address": "61 Edgedale Plains, Singapore 828819"
  },
  {
    "name": "HOUGANG PRIMARY SCHOOL",
    "lat": 1.37738245231461,
    "lon": 103.880805274557,
    "level": "PRIMARY",
    "address": "1 Hougang St 93, Singapore 534238"
  },
  {
    "name": "HOUGANG SECONDARY SCHOOL",
    "lat": 1.3776287955319,
    "lon": 103.882539108965,
    "level": "SECONDARY (S1-S5)",
    "address": "2 Hougang Street 93, Singapore 534256"
  },
  {
    "name": "HUA YI SECONDARY SCHOOL",
    "lat": 1.35234365488339,
    "lon": 103.721832320169,
    "level": "SECONDARY (S1-S5)",
    "address": "60 Jurong West St 42, Singapore 649371"
  },
  {
    "name": "HUAMIN PRIMARY SCHOOL",
    "lat": 1.42697284512936,
    "lon": 103.844240226564,
    "level": "PRIMARY",
    "address": "21 Yishun Avenue 11, Singapore 768857"
  },
  {
    "name": "INNOVA PRIMARY SCHOOL",
    "lat": 1.42896700684852,
    "lon": 103.790607539185,
    "level": "PRIMARY",
    "address": "80 Woodlands Drive 17, Singapore 737888"
  },
  {
    "name": "JIEMIN PRIMARY SCHOOL",
    "lat": 1.42768847665227,
    "lon": 103.830425490093,
    "level": "PRIMARY",
    "address": "2 Yishun Street 71, Singapore 768515"
  },
  {
    "name": "JING SHAN PRIMARY SCHOOL",
    "lat": 1.37196445720109,
    "lon": 103.851763531681,
    "level": "PRIMARY",
    "address": "5 Ang Mo Kio St 52, Singapore 569228"
  },
  {
    "name": "JUNYUAN PRIMARY SCHOOL",
    "lat": 1.34787074766746,
    "lon": 103.939221709073,
    "level": "PRIMARY",
    "address": "2 Tampines Street 91, Singapore 528906"
  },
  {
    "name": "JUNYUAN SECONDARY SCHOOL",
    "lat": 1.35361315263537,
    "lon": 103.933886165824,
    "level": "SECONDARY (S1-S5)",
    "address": "11 Tampines Street 84, Singapore 528933"
  },
  {
    "name": "JURONG PIONEER JUNIOR COLLEGE",
    "lat": 1.38437406410733,
    "lon": 103.75437461519,
    "level": "JUNIOR COLLEGE",
    "address": "21 Teck Whye Walk, Singapore 688258"
  },
  {
    "name": "JURONG PRIMARY SCHOOL",
    "lat": 1.34843859698946,
    "lon": 103.733156566858,
    "level": "PRIMARY",
    "address": "320 Jurong East Street 32, Singapore 609476"
  },
  {
    "name": "JURONG SECONDARY SCHOOL",
    "lat": 1.33002032220942,
    "lon": 103.723952961648,
    "level": "SECONDARY (S1-S5)",
    "address": "31 Yuan Ching Road, Singapore 618652"
  },
  {
    "name": "JURONG WEST PRIMARY SCHOOL",
    "lat": 1.33917519796104,
    "lon": 103.698803732244,
    "level": "PRIMARY",
    "address": "30 Jurong West St 61, Singapore 648368"
  },
  {
    "name": "JURONG WEST SECONDARY SCHOOL",
    "lat": 1.33525634688323,
    "lon": 103.702098904443,
    "level": "SECONDARY (S1-S5)",
    "address": "61 Jurong West Street 65, Singapore 648348"
  },
  {
    "name": "JURONGVILLE SECONDARY SCHOOL",
    "lat": 1.35128862770284,
    "lon": 103.728907710089,
    "level": "SECONDARY (S1-S5)",
    "address": "202 Jurong East Avenue 1, Singapore 609790"
  },
  {
    "name": "JUYING SECONDARY SCHOOL",
    "lat": 1.3387227734133,
    "lon": 103.687310264575,
    "level": "SECONDARY (S1-S5)",
    "address": "33 Jurong West Street 91, Singapore 649038"
  },
  {
    "name": "KEMING PRIMARY SCHOOL",
    "lat": 1.34552849960874,
    "lon": 103.756449399351,
    "level": "PRIMARY",
    "address": "90 Bukit Batok East Avenue 6, Singapore 659762"
  },
  {
    "name": "KENT RIDGE SECONDARY SCHOOL",
    "lat": 1.30122773426098,
    "lon": 103.764889617566,
    "level": "SECONDARY (S1-S5)",
    "address": "147 West Coast Road, Singapore 127368"
  },
  {
    "name": "KHENG CHENG SCHOOL",
    "lat": 1.3373381935639,
    "lon": 103.847148501824,
    "level": "PRIMARY",
    "address": "15 Lorong 3 Toa Payoh, Singapore 319580"
  },
  {
    "name": "KONG HWA SCHOOL",
    "lat": 1.31099674009193,
    "lon": 103.888352029067,
    "level": "PRIMARY",
    "address": "350 Guillemard Road, Singapore 399772"
  },
  {
    "name": "KRANJI PRIMARY SCHOOL",
    "lat": 1.39356050497104,
    "lon": 103.747362720939,
    "level": "PRIMARY",
    "address": "11 Choa Chu Kang Street 54, Singapore 689189"
  },
  {
    "name": "KRANJI SECONDARY SCHOOL",
    "lat": 1.39005109871311,
    "lon": 103.741190664845,
    "level": "SECONDARY (S1-S5)",
    "address": "61 Choa Chu Kang Street 51, Singapore 689333"
  },
  {
    "name": "KUO CHUAN PRESBYTERIAN PRIMARY SCHOOL",
    "lat": 1.34939813669536,
    "lon": 103.855018233311,
    "level": "PRIMARY",
    "address": "8 Bishan Street 13, Singapore 579793"
  },
  {
    "name": "KUO CHUAN PRESBYTERIAN SECONDARY SCHOOL",
    "lat": 1.35017129930314,
    "lon": 103.854983746416,
    "level": "SECONDARY (S1-S5)",
    "address": "10 Bishan Street 13, Singapore 579795"
  },
  {
    "name": "LAKESIDE PRIMARY SCHOOL",
    "lat": 1.33820397704287,
    "lon": 103.718089546664,
    "level": "PRIMARY",
    "address": "161 Corporation Walk, Singapore 618310"
  },
  {
    "name": "LIANHUA PRIMARY SCHOOL",
    "lat": 1.35424191127295,
    "lon": 103.754165828711,
    "level": "PRIMARY",
    "address": "2 Bukit Batok Street 52, Singapore 659243"
  },
  {
    "name": "LOYANG VIEW SECONDARY SCHOOL",
    "lat": 1.36658417167238,
    "lon": 103.956944585725,
    "level": "SECONDARY (S1-S5)",
    "address": "12 Pasir Ris Street 11, Singapore 519073"
  },
  {
    "name": "MAHA BODHI SCHOOL",
    "lat": 1.32858023873554,
    "lon": 103.901306904157,
    "level": "PRIMARY",
    "address": "10 Ubi Avenue 1, Singapore 408931"
  },
  {
    "name": "MANJUSRI SECONDARY SCHOOL",
    "lat": 1.32747123084846,
    "lon": 103.901719963831,
    "level": "SECONDARY (S1-S5)",
    "address": "20 Ubi Avenue 1, Singapore 408940"
  },
  {
    "name": "MARSILING PRIMARY SCHOOL",
    "lat": 1.43383904037059,
    "lon": 103.773643013846,
    "level": "PRIMARY",
    "address": "31 Woodlands Centre Road, Singapore 738927"
  },
  {
    "name": "MARSILING SECONDARY SCHOOL",
    "lat": 1.43664424769955,
    "lon": 103.776008090454,
    "level": "SECONDARY (S1-S5)",
    "address": "12 Marsiling Road, Singapore 739110"
  },
  {
    "name": "MARYMOUNT CONVENT SCHOOL",
    "lat": 1.34043840661368,
    "lon": 103.839811736775,
    "level": "PRIMARY",
    "address": "20 Marymount Road, Singapore 297754"
  },
  {
    "name": "MAYFLOWER PRIMARY SCHOOL",
    "lat": 1.37637683547682,
    "lon": 103.843252803742,
    "level": "PRIMARY",
    "address": "200 Ang Mo Kio Avenue 5, Singapore 569878"
  },
  {
    "name": "MAYFLOWER SECONDARY SCHOOL",
    "lat": 1.36827266209722,
    "lon": 103.835360726863,
    "level": "SECONDARY (S1-S5)",
    "address": "2 Ang Mo Kio Street 21, Singapore 569384"
  },
  {
    "name": "MEE TOH SCHOOL",
    "lat": 1.39485356081865,
    "lon": 103.90857257736,
    "level": "PRIMARY",
    "address": "21 Edgedale Plains, Singapore 828867"
  },
  {
    "name": "MERIDIAN PRIMARY SCHOOL",
    "lat": 1.37550677054835,
    "lon": 103.934953276155,
    "level": "PRIMARY",
    "address": "20 Pasir Ris St 71, Singapore 518798"
  },
  {
    "name": "MERIDIAN SECONDARY SCHOOL",
    "lat": 1.3672468492013,
    "lon": 103.948972483629,
    "level": "SECONDARY (S1-S5)",
    "address": "31 Pasir Ris Street 51, Singapore 518901"
  },
  {
    "name": "METHODIST GIRLS' SCHOOL (PRIMARY)",
    "lat": 1.33266213599636,
    "lon": 103.783382114018,
    "level": "PRIMARY",
    "address": "11 Blackmore Drive, Singapore 599986"
  },
  {
    "name": "METHODIST GIRLS' SCHOOL (SECONDARY)",
    "lat": 1.33266213599636,
    "lon": 103.783382114018,
    "level": "SECONDARY (S1-S4)",
    "address": "11 Blackmore Drive, Singapore 599986"
  },
  {
    "name": "MONTFORT JUNIOR SCHOOL",
    "lat": 1.37362445234082,
    "lon": 103.889741457901,
    "level": "PRIMARY",
    "address": "52 Hougang Avenue 8, Singapore 538786"
  },
  {
    "name": "MONTFORT SECONDARY SCHOOL",
    "lat": 1.37396131656912,
    "lon": 103.888928372577,
    "level": "SECONDARY (S1-S5)",
    "address": "50 Hougang Avenue 8, Singapore 538785"
  },
  {
    "name": "NAN CHIAU HIGH SCHOOL",
    "lat": 1.38879582498399,
    "lon": 103.890004423764,
    "level": "SECONDARY (S1-S5)",
    "address": "20 Anchorvale Link, Singapore 545079"
  },
  {
    "name": "NAN CHIAU PRIMARY SCHOOL",
    "lat": 1.39221149906592,
    "lon": 103.891180928186,
    "level": "PRIMARY",
    "address": "50 Anchorvale Link, Singapore 545080"
  },
  {
    "name": "NAN HUA HIGH SCHOOL",
    "lat": 1.30809529518605,
    "lon": 103.768561446725,
    "level": "SECONDARY (S1-S5)",
    "address": "41 Clementi Avenue 1, Singapore 129956"
  },
  {
    "name": "NAN HUA PRIMARY SCHOOL",
    "lat": 1.31920159956387,
    "lon": 103.761095065761,
    "level": "PRIMARY",
    "address": "30 Jalan Lempeng, Singapore 128806"
  },
  {
    "name": "NANYANG GIRLS' HIGH SCHOOL",
    "lat": 1.33058326666479,
    "lon": 103.802420979943,
    "level": "SECONDARY (S1-S4)",
    "address": "2 Linden Drive, Singapore 288683"
  },
  {
    "name": "NANYANG JUNIOR COLLEGE",
    "lat": 1.35028314949236,
    "lon": 103.866498721912,
    "level": "JUNIOR COLLEGE",
    "address": "128 Serangoon Avenue 3, Singapore 556111"
  },
  {
    "name": "NANYANG PRIMARY SCHOOL",
    "lat": 1.32107094241153,
    "lon": 103.807681852799,
    "level": "PRIMARY",
    "address": "52 King'S Road, Singapore 268097"
  },
  {
    "name": "NAVAL BASE PRIMARY SCHOOL",
    "lat": 1.41590195697649,
    "lon": 103.839100590207,
    "level": "PRIMARY",
    "address": "7 Yishun Ave 4, Singapore 769028"
  },
  {
    "name": "NAVAL BASE SECONDARY SCHOOL",
    "lat": 1.41937881620441,
    "lon": 103.831050390247,
    "level": "SECONDARY (S1-S5)",
    "address": "901 Yishun Ring Road, Singapore 768689"
  },
  {
    "name": "NEW TOWN PRIMARY SCHOOL",
    "lat": 1.29981138884057,
    "lon": 103.799964819895,
    "level": "PRIMARY",
    "address": "300 Tanglin Halt Road, Singapore 148812"
  },
  {
    "name": "NEW TOWN SECONDARY SCHOOL",
    "lat": 1.30977590011357,
    "lon": 103.77318863421,
    "level": "SECONDARY (S1-S5)",
    "address": "1020 Dover Road, Singapore 139657"
  },
  {
    "name": "NGEE ANN PRIMARY SCHOOL",
    "lat": 1.30553224180437,
    "lon": 103.917570005713,
    "level": "PRIMARY",
    "address": "344 Marine Terrace, Singapore 449149"
  },
  {
    "name": "NGEE ANN SECONDARY SCHOOL",
    "lat": 1.35447525755806,
    "lon": 103.956747262496,
    "level": "SECONDARY (S1-S5)",
    "address": "1 Tampines Street 32, Singapore 529283"
  },
  {
    "name": "NORTH SPRING PRIMARY SCHOOL",
    "lat": 1.38706146494859,
    "lon": 103.903202683028,
    "level": "PRIMARY",
    "address": "1 Rivervale Street, Singapore 545088"
  },
  {
    "name": "NORTH VIEW PRIMARY SCHOOL",
    "lat": 1.42745159462566,
    "lon": 103.848378442893,
    "level": "PRIMARY",
    "address": "210 Yishun Avenue 6, Singapore 768960"
  },
  {
    "name": "NORTH VISTA PRIMARY SCHOOL",
    "lat": 1.38255066171151,
    "lon": 103.89626457548,
    "level": "PRIMARY",
    "address": "20 Compassvale Link, Singapore 544974"
  },
  {
    "name": "NORTH VISTA SECONDARY SCHOOL",
    "lat": 1.381131285358,
    "lon": 103.899188813886,
    "level": "SECONDARY (S1-S5)",
    "address": "11 Rivervale Link, Singapore 545081"
  },
  {
    "name": "NORTHBROOKS SECONDARY SCHOOL",
    "lat": 1.42081285020652,
    "lon": 103.845147332528,
    "level": "SECONDARY (S1-S5)",
    "address": "585 Yishun Ring Road, Singapore 768692"
  },
  {
    "name": "NORTHLAND PRIMARY SCHOOL",
    "lat": 1.42130404159807,
    "lon": 103.840792923345,
    "level": "PRIMARY",
    "address": "15 Yishun Avenue 4, Singapore 769026"
  },
  {
    "name": "NORTHLAND SECONDARY SCHOOL",
    "lat": 1.43580183362637,
    "lon": 103.840104687784,
    "level": "SECONDARY (S1-S5)",
    "address": "3 Yishun Street 22, Singapore 768578"
  },
  {
    "name": "NORTHLIGHT SCHOOL",
    "lat": 1.3191002158167,
    "lon": 103.85575955353,
    "level": "SECONDARY (S1-S4)",
    "address": "151 Towner Road, Singapore 327830"
  },
  {
    "name": "NORTHOAKS PRIMARY SCHOOL",
    "lat": 1.45732867302094,
    "lon": 103.814075611175,
    "level": "PRIMARY",
    "address": "61 Sembawang Drive, Singapore 757622"
  },
  {
    "name": "NORTHSHORE PRIMARY SCHOOL",
    "lat": 1.41842322079348,
    "lon": 103.905147201163,
    "level": "PRIMARY",
    "address": "30 Northshore Drive, Singapore 828671"
  },
  {
    "name": "OASIS PRIMARY SCHOOL",
    "lat": 1.40507184758584,
    "lon": 103.911200193835,
    "level": "PRIMARY",
    "address": "71 Edgefield Plains, Singapore 828716"
  },
  {
    "name": "OPERA ESTATE PRIMARY SCHOOL",
    "lat": 1.31996876377748,
    "lon": 103.923752668632,
    "level": "PRIMARY",
    "address": "48 Fidelio Street, Singapore 458436"
  },
  {
    "name": "ORCHID PARK SECONDARY SCHOOL",
    "lat": 1.41532032779634,
    "lon": 103.837859241343,
    "level": "SECONDARY (S1-S5)",
    "address": "10 Yishun Street 81, Singapore 768454"
  },
  {
    "name": "OUTRAM SECONDARY SCHOOL",
    "lat": 1.39775020428346,
    "lon": 103.891230426312,
    "level": "SECONDARY (S1-S5)",
    "address": "48 Anchorvale Crescent, Singapore 549936"
  },
  {
    "name": "PALM VIEW PRIMARY SCHOOL",
    "lat": 1.38376923022123,
    "lon": 103.891354675017,
    "level": "PRIMARY",
    "address": "150 Compassvale Bow, Singapore 544822"
  },
  {
    "name": "PARK VIEW PRIMARY SCHOOL",
    "lat": 1.37801687647812,
    "lon": 103.9392021807,
    "level": "PRIMARY",
    "address": "60 Pasir Ris Drive 1, Singapore 519524"
  },
  {
    "name": "PASIR RIS CREST SECONDARY SCHOOL",
    "lat": 1.37284060102246,
    "lon": 103.959728202919,
    "level": "SECONDARY (S1-S5)",
    "address": "11 Pasir Ris Street 41, Singapore 518934"
  },
  {
    "name": "PASIR RIS PRIMARY SCHOOL",
    "lat": 1.37245132722087,
    "lon": 103.962922699031,
    "level": "PRIMARY",
    "address": "5 Pasir Ris Street 21, Singapore 518968"
  },
  {
    "name": "PASIR RIS SECONDARY SCHOOL",
    "lat": 1.35422732653396,
    "lon": 103.948962626204,
    "level": "SECONDARY (S1-S5)",
    "address": "390 Tampines Street 21, Singapore 529400"
  },
  {
    "name": "PAYA LEBAR METHODIST GIRLS' SCHOOL (PRIMARY)",
    "lat": 1.3502545600894,
    "lon": 103.884846876112,
    "level": "PRIMARY",
    "address": "298 Lorong Ah Soo, Singapore 536741"
  },
  {
    "name": "PAYA LEBAR METHODIST GIRLS' SCHOOL (SECONDARY)",
    "lat": 1.35096755912522,
    "lon": 103.885120050588,
    "level": "SECONDARY (S1-S5)",
    "address": "296 Lor Ah Soo, Singapore 536742"
  },
  {
    "name": "PEI CHUN PUBLIC SCHOOL",
    "lat": 1.33677864390672,
    "lon": 103.855341310212,
    "level": "PRIMARY",
    "address": "16 Lorong 7 Toa Payoh, Singapore 319320"
  },
  {
    "name": "PEI HWA PRESBYTERIAN PRIMARY SCHOOL",
    "lat": 1.33807302121151,
    "lon": 103.776250903095,
    "level": "PRIMARY",
    "address": "7 Pei Wah Avenue, Singapore 597610"
  },
  {
    "name": "PEI HWA SECONDARY SCHOOL",
    "lat": 1.39037504993234,
    "lon": 103.878461745339,
    "level": "SECONDARY (S1-S5)",
    "address": "21 Fernvale Link, Singapore 797702"
  },
  {
    "name": "PEI TONG PRIMARY SCHOOL",
    "lat": 1.31666529308968,
    "lon": 103.767438999533,
    "level": "PRIMARY",
    "address": "15 Clementi Avenue 5, Singapore 129857"
  },
  {
    "name": "PEICAI SECONDARY SCHOOL",
    "lat": 1.35951583222214,
    "lon": 103.870010749055,
    "level": "SECONDARY (S1-S5)",
    "address": "10 Serangoon Avenue 4, Singapore 556094"
  },
  {
    "name": "PEIRCE SECONDARY SCHOOL",
    "lat": 1.36665944653812,
    "lon": 103.83021606804,
    "level": "SECONDARY (S1-S5)",
    "address": "10 Sin Ming Walk, Singapore 575566"
  },
  {
    "name": "PEIYING PRIMARY SCHOOL",
    "lat": 1.41741627551251,
    "lon": 103.830143209875,
    "level": "PRIMARY",
    "address": "651 Yishun Ring Road, Singapore 768687"
  },
  {
    "name": "PIONEER PRIMARY SCHOOL",
    "lat": 1.35442592930738,
    "lon": 103.732790920197,
    "level": "PRIMARY",
    "address": "80 Tengah Garden Avenue, Singapore 699915"
  },
  {
    "name": "POI CHING SCHOOL",
    "lat": 1.35765121877679,
    "lon": 103.935246486174,
    "level": "PRIMARY",
    "address": "21 Tampines Street 71, Singapore 529067"
  },
  {
    "name": "PRESBYTERIAN HIGH SCHOOL",
    "lat": 1.38175437421949,
    "lon": 103.842382968794,
    "level": "SECONDARY (S1-S5)",
    "address": "5209 Ang Mo Kio Avenue 6, Singapore 569845"
  },
  {
    "name": "PRINCESS ELIZABETH PRIMARY SCHOOL",
    "lat": 1.34919098857585,
    "lon": 103.740719208011,
    "level": "PRIMARY",
    "address": "30 Bukit Batok West Avenue 3, Singapore 659163"
  },
  {
    "name": "PUNGGOL COVE PRIMARY SCHOOL",
    "lat": 1.41158455562454,
    "lon": 103.89890448429,
    "level": "PRIMARY",
    "address": "52 Sumang Walk, Singapore 828674"
  },
  {
    "name": "PUNGGOL GREEN PRIMARY SCHOOL",
    "lat": 1.40172590450528,
    "lon": 103.898794262307,
    "level": "PRIMARY",
    "address": "98 Punggol Walk, Singapore 828772"
  },
  {
    "name": "PUNGGOL PRIMARY SCHOOL",
    "lat": 1.37820062547641,
    "lon": 103.894667159512,
    "level": "PRIMARY",
    "address": "61 Hougang Avenue 8, Singapore 538787"
  },
  {
    "name": "PUNGGOL SECONDARY SCHOOL",
    "lat": 1.40205738421399,
    "lon": 103.909213706482,
    "level": "SECONDARY (S1-S5)",
    "address": "51 Edgefield Plains, Singapore 828870"
  },
  {
    "name": "PUNGGOL VIEW PRIMARY SCHOOL",
    "lat": 1.40505250226058,
    "lon": 103.905299026568,
    "level": "PRIMARY",
    "address": "9 Punggol Place, Singapore 828845"
  },
  {
    "name": "QIFA PRIMARY SCHOOL",
    "lat": 1.3132658326807,
    "lon": 103.756629101811,
    "level": "PRIMARY",
    "address": "50 West Coast Avenue, Singapore 128104"
  },
  {
    "name": "QIHUA PRIMARY SCHOOL",
    "lat": 1.44203596557592,
    "lon": 103.788339762066,
    "level": "PRIMARY",
    "address": "5 Woodlands Street 81, Singapore 738525"
  },
  {
    "name": "QUEENSTOWN PRIMARY SCHOOL",
    "lat": 1.29552905587752,
    "lon": 103.807648475656,
    "level": "PRIMARY",
    "address": "310 Margaret Dr, Singapore 149303"
  },
  {
    "name": "QUEENSTOWN SECONDARY SCHOOL",
    "lat": 1.29352126774652,
    "lon": 103.813190980055,
    "level": "SECONDARY (S1-S5)",
    "address": "1 Strathmore Road, Singapore 148800"
  },
  {
    "name": "QUEENSWAY SECONDARY SCHOOL",
    "lat": 1.30022271592188,
    "lon": 103.802207291625,
    "level": "SECONDARY (S1-S5)",
    "address": "2A Margaret Drive, Singapore 149295"
  },
  {
    "name": "RADIN MAS PRIMARY SCHOOL",
    "lat": 1.27495823622634,
    "lon": 103.824188270373,
    "level": "PRIMARY",
    "address": "1 Bukit Purmei Avenue, Singapore 99840"
  },
  {
    "name": "RAFFLES GIRLS' PRIMARY SCHOOL",
    "lat": 1.33004178068277,
    "lon": 103.806397828938,
    "level": "PRIMARY",
    "address": "21 Hillcrest Road, Singapore 289072"
  },
  {
    "name": "RAFFLES GIRLS' SCHOOL (SECONDARY)",
    "lat": 1.34217479932295,
    "lon": 103.84313404727,
    "level": "SECONDARY (S1-S4)",
    "address": "2 Braddell Rise, Singapore 318871"
  },
  {
    "name": "RED SWASTIKA SCHOOL",
    "lat": 1.33405659580859,
    "lon": 103.934317528484,
    "level": "PRIMARY",
    "address": "350 Bedok North Avenue 3, Singapore 469719"
  },
  {
    "name": "REGENT SECONDARY SCHOOL",
    "lat": 1.39327908335682,
    "lon": 103.751034411529,
    "level": "SECONDARY (S1-S5)",
    "address": "50 Choa Chu Kang North 5, Singapore 689621"
  },
  {
    "name": "RIVER VALLEY PRIMARY SCHOOL",
    "lat": 1.29418347842837,
    "lon": 103.836018941571,
    "level": "PRIMARY",
    "address": "2 River Valley Green, Singapore 237993"
  },
  {
    "name": "RIVERSIDE PRIMARY SCHOOL",
    "lat": 1.44700426493785,
    "lon": 103.801889031334,
    "level": "PRIMARY",
    "address": "110 Woodlands Crescent, Singapore 737803"
  },
  {
    "name": "RIVERSIDE SECONDARY SCHOOL",
    "lat": 1.44110157139127,
    "lon": 103.78830823641,
    "level": "SECONDARY (S1-S5)",
    "address": "3 Woodlands Street 81, Singapore 738524"
  },
  {
    "name": "RIVERVALE PRIMARY SCHOOL",
    "lat": 1.39333506298213,
    "lon": 103.904545253288,
    "level": "PRIMARY",
    "address": "80 Rivervale Drive, Singapore 545092"
  },
  {
    "name": "ROSYTH SCHOOL",
    "lat": 1.3728583654058,
    "lon": 103.87477170399,
    "level": "PRIMARY",
    "address": "21 Serangoon North Avenue 4, Singapore 555855"
  },
  {
    "name": "RULANG PRIMARY SCHOOL",
    "lat": 1.34673868889096,
    "lon": 103.718457955487,
    "level": "PRIMARY",
    "address": "6 Jurong West Street 52, Singapore 649295"
  },
  {
    "name": "SCHOOL OF SCIENCE AND TECHNOLOGY, SINGAPORE",
    "lat": 1.31292810600277,
    "lon": 103.774011529322,
    "level": "SECONDARY (S1-S4)",
    "address": "1 Technology Drive, Singapore 138572"
  },
  {
    "name": "SEMBAWANG PRIMARY SCHOOL",
    "lat": 1.4457453096024,
    "lon": 103.821152676215,
    "level": "PRIMARY",
    "address": "10 Sembawang Drive, Singapore 757715"
  },
  {
    "name": "SEMBAWANG SECONDARY SCHOOL",
    "lat": 1.44531502131387,
    "lon": 103.816843258118,
    "level": "SECONDARY (S1-S5)",
    "address": "30 Sembawang Crescent, Singapore 757704"
  },
  {
    "name": "SENG KANG PRIMARY SCHOOL",
    "lat": 1.38925044778224,
    "lon": 103.899527879229,
    "level": "PRIMARY",
    "address": "21 Compassvale Walk, Singapore 545166"
  },
  {
    "name": "SENG KANG SECONDARY SCHOOL",
    "lat": 1.38659683143747,
    "lon": 103.898365036709,
    "level": "SECONDARY (S1-S5)",
    "address": "10 Compassvale Lane, Singapore 545090"
  },
  {
    "name": "SENGKANG GREEN PRIMARY SCHOOL",
    "lat": 1.3925400930811,
    "lon": 103.874984869551,
    "level": "PRIMARY",
    "address": "15 Fernvale Road, Singapore 797636"
  },
  {
    "name": "SERANGOON GARDEN SECONDARY SCHOOL",
    "lat": 1.36932570490947,
    "lon": 103.869270301476,
    "level": "SECONDARY (S1-S5)",
    "address": "21 Serangoon North Avenue 1, Singapore 555889"
  },
  {
    "name": "SERANGOON SECONDARY SCHOOL",
    "lat": 1.37465538827443,
    "lon": 103.902138740699,
    "level": "SECONDARY (S1-S5)",
    "address": "11 Upper Serangoon View, Singapore 534237"
  },
  {
    "name": "SHUQUN PRIMARY SCHOOL",
    "lat": 1.34686967259067,
    "lon": 103.721559387203,
    "level": "PRIMARY",
    "address": "8 Jurong West Street 51, Singapore 649332"
  },
  {
    "name": "SI LING PRIMARY SCHOOL",
    "lat": 1.43240935732525,
    "lon": 103.786035065192,
    "level": "PRIMARY",
    "address": "61 Woodlands Avenue 1, Singapore 739067"
  },
  {
    "name": "SINGAPORE CHINESE GIRLS' PRIMARY SCHOOL",
    "lat": 1.3206340835184,
    "lon": 103.828164966953,
    "level": "PRIMARY",
    "address": "190 Dunearn Road, Singapore 309437"
  },
  {
    "name": "SINGAPORE CHINESE GIRLS' SCHOOL",
    "lat": 1.3206340835184,
    "lon": 103.828164966953,
    "level": "SECONDARY (S1-S4)",
    "address": "190 Dunearn Road, Singapore 309437"
  },
  {
    "name": "SOUTH VIEW PRIMARY SCHOOL",
    "lat": 1.38143123987698,
    "lon": 103.747153671,
    "level": "PRIMARY",
    "address": "6 Choa Chu Kang Central, Singapore 689762"
  },
  {
    "name": "SPECTRA SECONDARY SCHOOL",
    "lat": 1.43703750789961,
    "lon": 103.804100467487,
    "level": "SECONDARY (S1-S4)",
    "address": "1 Woodlands Drive 64, Singapore 737758"
  },
  {
    "name": "SPRINGDALE PRIMARY SCHOOL",
    "lat": 1.39528544463377,
    "lon": 103.889416413501,
    "level": "PRIMARY",
    "address": "71 Anchorvale Link, Singapore 544799"
  },
  {
    "name": "SPRINGFIELD SECONDARY SCHOOL",
    "lat": 1.34957303471476,
    "lon": 103.930354460693,
    "level": "SECONDARY (S1-S5)",
    "address": "30 Tampines Avenue 8, Singapore 529593"
  },
  {
    "name": "ST ANDREW'S JUNIOR COLLEGE",
    "lat": 1.33306515740956,
    "lon": 103.863576377056,
    "level": "JUNIOR COLLEGE",
    "address": "5 Sorby Adams Drive, Singapore 357691"
  },
  {
    "name": "ST ANDREW'S SCHOOL (JUNIOR)",
    "lat": 1.33140255308868,
    "lon": 103.865117134385,
    "level": "PRIMARY",
    "address": "2 Francis Thomas Drive, Singapore 359337"
  },
  {
    "name": "ST ANDREW'S SCHOOL (SECONDARY)",
    "lat": 1.33069360968075,
    "lon": 103.866249138562,
    "level": "SECONDARY (S1-S5)",
    "address": "15 Francis Thomas Drive, Singapore 359342"
  },
  {
    "name": "ST. ANTHONY'S CANOSSIAN PRIMARY SCHOOL",
    "lat": 1.3347253730189,
    "lon": 103.941234868202,
    "level": "PRIMARY",
    "address": "1602 Bedok North Ave 4, Singapore 469701"
  },
  {
    "name": "ST. ANTHONY'S CANOSSIAN SECONDARY SCHOOL",
    "lat": 1.33466313498855,
    "lon": 103.941977166932,
    "level": "SECONDARY (S1-S5)",
    "address": "1600 Bedok North Avenue 4, Singapore 469700"
  },
  {
    "name": "ST. ANTHONY'S PRIMARY SCHOOL",
    "lat": 1.36411948475833,
    "lon": 103.749251919049,
    "level": "PRIMARY",
    "address": "30 Bukit Batok St 32, Singapore 659401"
  },
  {
    "name": "ST. GABRIEL'S PRIMARY SCHOOL",
    "lat": 1.34930766795555,
    "lon": 103.862309899986,
    "level": "PRIMARY",
    "address": "220 Lorong Chuan, Singapore 556742"
  },
  {
    "name": "ST. GABRIEL'S SECONDARY SCHOOL",
    "lat": 1.34648798732177,
    "lon": 103.876094163287,
    "level": "SECONDARY (S1-S5)",
    "address": "24 Serangoon Avenue 1, Singapore 556140"
  },
  {
    "name": "ST. HILDA'S PRIMARY SCHOOL",
    "lat": 1.34967978969837,
    "lon": 103.937016363397,
    "level": "PRIMARY",
    "address": "2 Tampines Ave 3, Singapore 529706"
  },
  {
    "name": "ST. HILDA'S SECONDARY SCHOOL",
    "lat": 1.34973922385379,
    "lon": 103.937608032148,
    "level": "SECONDARY (S1-S5)",
    "address": "2 Tampines Street 82, Singapore 528986"
  },
  {
    "name": "ST. JOSEPH'S INSTITUTION JUNIOR",
    "lat": 1.31781476118551,
    "lon": 103.845633334522,
    "level": "PRIMARY",
    "address": "3 Essex Road, Singapore 309331"
  },
  {
    "name": "ST. MARGARET'S SCHOOL (PRIMARY)",
    "lat": 1.30414407358332,
    "lon": 103.845820266438,
    "level": "PRIMARY",
    "address": "136 Sophia Road, Singapore 228197"
  },
  {
    "name": "ST. MARGARET'S SCHOOL (SECONDARY)",
    "lat": 1.31977464050584,
    "lon": 103.809602215402,
    "level": "SECONDARY (S1-S5)",
    "address": "111 Farrer Road, Singapore 259240"
  },
  {
    "name": "ST. PATRICK'S SCHOOL",
    "lat": 1.30788341871801,
    "lon": 103.917638193713,
    "level": "SECONDARY (S1-S5)",
    "address": "490 East Coast Road, Singapore 429058"
  },
  {
    "name": "ST. STEPHEN'S SCHOOL",
    "lat": 1.31878997295135,
    "lon": 103.917258129598,
    "level": "PRIMARY",
    "address": "20 Siglap View, Singapore 455789"
  },
  {
    "name": "SWISS COTTAGE SECONDARY SCHOOL",
    "lat": 1.36471742697475,
    "lon": 103.750396136688,
    "level": "SECONDARY (S1-S5)",
    "address": "3 Bukit Batok Street 34, Singapore 659322"
  },
  {
    "name": "TAMPINES MERIDIAN JUNIOR COLLEGE",
    "lat": 1.37633346909682,
    "lon": 103.936990723441,
    "level": "JUNIOR COLLEGE",
    "address": "21 Pasir Ris Street 71, Singapore 518799"
  },
  {
    "name": "TAMPINES NORTH PRIMARY SCHOOL",
    "lat": 1.36048786025607,
    "lon": 103.948768900518,
    "level": "PRIMARY",
    "address": "30 Tampines Avenue 9, Singapore 529565"
  },
  {
    "name": "TAMPINES PRIMARY SCHOOL",
    "lat": 1.3504863946694,
    "lon": 103.943573098509,
    "level": "PRIMARY",
    "address": "250 Tampines Street 12, Singapore 529426"
  },
  {
    "name": "TAMPINES SECONDARY SCHOOL",
    "lat": 1.34926094811197,
    "lon": 103.944263709507,
    "level": "SECONDARY (S1-S5)",
    "address": "252 Tampines St 12, Singapore 529427"
  },
  {
    "name": "TANJONG KATONG GIRLS' SCHOOL",
    "lat": 1.3075626184394,
    "lon": 103.896107204542,
    "level": "SECONDARY (S1-S4)",
    "address": "20 Dunman Lane, Singapore 439272"
  },
  {
    "name": "TANJONG KATONG PRIMARY SCHOOL",
    "lat": 1.30498489044822,
    "lon": 103.899999965407,
    "level": "PRIMARY",
    "address": "10 Seraya Road, Singapore 437259"
  },
  {
    "name": "TANJONG KATONG SECONDARY SCHOOL",
    "lat": 1.30873515955341,
    "lon": 103.897225196199,
    "level": "SECONDARY (S1-S4)",
    "address": "130 Haig Road, Singapore 438796"
  },
  {
    "name": "TAO NAN SCHOOL",
    "lat": 1.30528528687321,
    "lon": 103.911553152326,
    "level": "PRIMARY",
    "address": "49 Marine Crescent, Singapore 449761"
  },
  {
    "name": "TECK GHEE PRIMARY SCHOOL",
    "lat": 1.36565018546903,
    "lon": 103.851009800453,
    "level": "PRIMARY",
    "address": "1 Ang Mo Kio Street 32, Singapore 569299"
  },
  {
    "name": "TECK WHYE PRIMARY SCHOOL",
    "lat": 1.38388660469396,
    "lon": 103.753924558586,
    "level": "PRIMARY",
    "address": "11 Teck Whye Walk, Singapore 688261"
  },
  {
    "name": "TELOK KURAU PRIMARY SCHOOL",
    "lat": 1.33109611001931,
    "lon": 103.911005345855,
    "level": "PRIMARY",
    "address": "50 Bedok Reservoir Rd, Singapore 479239"
  },
  {
    "name": "TEMASEK PRIMARY SCHOOL",
    "lat": 1.31720341663064,
    "lon": 103.94575943784,
    "level": "PRIMARY",
    "address": "501 Bedok South Ave 3, Singapore 469300"
  },
  {
    "name": "TEMASEK SECONDARY SCHOOL",
    "lat": 1.31591673150616,
    "lon": 103.947564112022,
    "level": "SECONDARY (S1-S5)",
    "address": "600 Upper East Coast Road, Singapore 465561"
  },
  {
    "name": "TOWNSVILLE PRIMARY SCHOOL",
    "lat": 1.35994649477568,
    "lon": 103.853768994775,
    "level": "PRIMARY",
    "address": "3 Ang Mo Kio Ave 10, Singapore 569730"
  },
  {
    "name": "UNITY PRIMARY SCHOOL",
    "lat": 1.40278303219036,
    "lon": 103.746801233973,
    "level": "PRIMARY",
    "address": "21 Choa Chu Kang Crescent, Singapore 688268"
  },
  {
    "name": "UNITY SECONDARY SCHOOL",
    "lat": 1.40001524119441,
    "lon": 103.74602091483,
    "level": "SECONDARY (S1-S5)",
    "address": "20 Choa Chu Kang Street 62, Singapore 689143"
  },
  {
    "name": "VALOUR PRIMARY SCHOOL",
    "lat": 1.40744168163777,
    "lon": 103.898762173662,
    "level": "PRIMARY",
    "address": "49 Punggol Central, Singapore 828728"
  },
  {
    "name": "VICTORIA JUNIOR COLLEGE",
    "lat": 1.30670174177479,
    "lon": 103.919982704149,
    "level": "JUNIOR COLLEGE",
    "address": "20 Marine Vista, Singapore 449035"
  },
  {
    "name": "VICTORIA SCHOOL",
    "lat": 1.3087130270751,
    "lon": 103.927980966639,
    "level": "SECONDARY (S1-S4)",
    "address": "2 Siglap Link, Singapore 448880"
  },
  {
    "name": "WATERWAY PRIMARY SCHOOL",
    "lat": 1.39889261226315,
    "lon": 103.918585924582,
    "level": "PRIMARY",
    "address": "70 Punggol Drive, Singapore 828802"
  },
  {
    "name": "WELLINGTON PRIMARY SCHOOL",
    "lat": 1.45168517614776,
    "lon": 103.822516208087,
    "level": "PRIMARY",
    "address": "10 Wellington Circle, Singapore 757702"
  },
  {
    "name": "WEST GROVE PRIMARY SCHOOL",
    "lat": 1.34471211768915,
    "lon": 103.698964212988,
    "level": "PRIMARY",
    "address": "1 Jurong West St 72, Singapore 649223"
  },
  {
    "name": "WEST SPRING PRIMARY SCHOOL",
    "lat": 1.38917971808454,
    "lon": 103.76639772288,
    "level": "PRIMARY",
    "address": "60 Bukit Panjang Ring Road, Singapore 679946"
  },
  {
    "name": "WEST SPRING SECONDARY SCHOOL",
    "lat": 1.38782283303782,
    "lon": 103.760128840155,
    "level": "SECONDARY (S1-S5)",
    "address": "61 Senja  Road, Singapore 677737"
  },
  {
    "name": "WEST VIEW PRIMARY SCHOOL",
    "lat": 1.38378546546228,
    "lon": 103.760273432258,
    "level": "PRIMARY",
    "address": "31 Senja Road, Singapore 677742"
  },
  {
    "name": "WESTWOOD PRIMARY SCHOOL",
    "lat": 1.3477109654722,
    "lon": 103.700467520791,
    "level": "PRIMARY",
    "address": "1 Jurong West Street 73, Singapore 649188"
  },
  {
    "name": "WESTWOOD SECONDARY SCHOOL",
    "lat": 1.35373698510994,
    "lon": 103.701772102139,
    "level": "SECONDARY (S1-S5)",
    "address": "11 Jurong West Street 25, Singapore 648350"
  },
  {
    "name": "WHITE SANDS PRIMARY SCHOOL",
    "lat": 1.36563610941695,
    "lon": 103.960861814678,
    "level": "PRIMARY",
    "address": "2 Pasir Ris St 11, Singapore 519075"
  },
  {
    "name": "WHITLEY SECONDARY SCHOOL",
    "lat": 1.35505208480649,
    "lon": 103.842552378136,
    "level": "SECONDARY (S1-S5)",
    "address": "30 Bishan Street 24, Singapore 579747"
  },
  {
    "name": "WOODGROVE PRIMARY SCHOOL",
    "lat": 1.43273620725049,
    "lon": 103.79023031392,
    "level": "PRIMARY",
    "address": "2 Woodlands Drive 14, Singapore 738079"
  },
  {
    "name": "WOODGROVE SECONDARY SCHOOL",
    "lat": 1.42831828137013,
    "lon": 103.79604758539,
    "level": "SECONDARY (S1-S5)",
    "address": "3 Woodlands Avenue 6, Singapore 738990"
  },
  {
    "name": "WOODLANDS PRIMARY SCHOOL",
    "lat": 1.43658270720199,
    "lon": 103.791791282236,
    "level": "PRIMARY",
    "address": "10 Woodlands Drive 50, Singapore 738853"
  },
  {
    "name": "WOODLANDS RING PRIMARY SCHOOL",
    "lat": 1.43485179380236,
    "lon": 103.79741434351,
    "level": "PRIMARY",
    "address": "11 Woodlands Ring Road, Singapore 738240"
  },
  {
    "name": "WOODLANDS RING SECONDARY SCHOOL",
    "lat": 1.43070452883799,
    "lon": 103.777625748539,
    "level": "SECONDARY (S1-S5)",
    "address": "21 Woodlands Avenue 1, Singapore 739062"
  },
  {
    "name": "WOODLANDS SECONDARY SCHOOL",
    "lat": 1.43912528141356,
    "lon": 103.774586410437,
    "level": "SECONDARY (S1-S5)",
    "address": "11 Marsiling Road, Singapore 739111"
  },
  {
    "name": "XINGHUA PRIMARY SCHOOL",
    "lat": 1.35799653782463,
    "lon": 103.890216355459,
    "level": "PRIMARY",
    "address": "45 Hougang Avenue 1, Singapore 538882"
  },
  {
    "name": "XINGNAN PRIMARY SCHOOL",
    "lat": 1.34270639669225,
    "lon": 103.687588478681,
    "level": "PRIMARY",
    "address": "5 Jurong West Street 91, Singapore 649036"
  },
  {
    "name": "XINMIN PRIMARY SCHOOL",
    "lat": 1.37176798317468,
    "lon": 103.88280991785,
    "level": "PRIMARY",
    "address": "9 Hougang Avenue 8, Singapore 538784"
  },
  {
    "name": "XINMIN SECONDARY SCHOOL",
    "lat": 1.37255884700002,
    "lon": 103.88305161385,
    "level": "SECONDARY (S1-S5)",
    "address": "11 Hougang Avenue 8, Singapore 538789"
  },
  {
    "name": "XISHAN PRIMARY SCHOOL",
    "lat": 1.43347186925064,
    "lon": 103.837755319448,
    "level": "PRIMARY",
    "address": "8 Yishun Street 21, Singapore 768611"
  },
  {
    "name": "YANGZHENG PRIMARY SCHOOL",
    "lat": 1.3489768083841,
    "lon": 103.868467129954,
    "level": "PRIMARY",
    "address": "15 Serangoon Avenue 3, Singapore 556108"
  },
  {
    "name": "YEW TEE PRIMARY SCHOOL",
    "lat": 1.39672603497195,
    "lon": 103.751817992962,
    "level": "PRIMARY",
    "address": "10 Choa Chu Kang St 64, Singapore 689100"
  },
  {
    "name": "YIO CHU KANG PRIMARY SCHOOL",
    "lat": 1.37793264345276,
    "lon": 103.885643682171,
    "level": "PRIMARY",
    "address": "1 Hougang Street 51, Singapore 538720"
  },
  {
    "name": "YIO CHU KANG SECONDARY SCHOOL",
    "lat": 1.37797597740925,
    "lon": 103.84213696352,
    "level": "SECONDARY (S1-S5)",
    "address": "3063 Ang Mo Kio Avenue 5, Singapore 569868"
  },
  {
    "name": "YISHUN INNOVA JUNIOR COLLEGE",
    "lat": 1.42426692572335,
    "lon": 103.83003171149,
    "level": "JUNIOR COLLEGE",
    "address": "3 Yishun Ring Road, Singapore 768675"
  },
  {
    "name": "YISHUN PRIMARY SCHOOL",
    "lat": 1.43397617334964,
    "lon": 103.834050796658,
    "level": "PRIMARY",
    "address": "500 Yishun Ring Road, Singapore 768679"
  },
  {
    "name": "YISHUN SECONDARY SCHOOL",
    "lat": 1.42813324276086,
    "lon": 103.828764316679,
    "level": "SECONDARY (S1-S5)",
    "address": "4 Yishun Street 71, Singapore 768516"
  },
  {
    "name": "YISHUN TOWN SECONDARY SCHOOL",
    "lat": 1.43232156717386,
    "lon": 103.838094226361,
    "level": "SECONDARY (S1-S5)",
    "address": "6 Yishun Street 21, Singapore 768610"
  },
  {
    "name": "YU NENG PRIMARY SCHOOL",
    "lat": 1.33398037894072,
    "lon": 103.932015036296,
    "level": "PRIMARY",
    "address": "56 Bedok North St 3, Singapore 469623"
  },
  {
    "name": "YUAN CHING SECONDARY SCHOOL",
    "lat": 1.34200635764467,
    "lon": 103.72089870437,
    "level": "SECONDARY (S1-S5)",
    "address": "103 Yuan Ching Road, Singapore 618654"
  },
  {
    "name": "YUHUA PRIMARY SCHOOL",
    "lat": 1.34291981622016,
    "lon": 103.740861148879,
    "level": "PRIMARY",
    "address": "158 Jurong East Street 24, Singapore 609558"
  },
  {
    "name": "YUHUA SECONDARY SCHOOL",
    "lat": 1.34718626876968,
    "lon": 103.722687235839,
    "level": "SECONDARY (S1-S5)",
    "address": "35 Jurong West Street 41, Singapore 649406"
  },
  {
    "name": "YUMIN PRIMARY SCHOOL",
    "lat": 1.35131569890862,
    "lon": 103.950551091373,
    "level": "PRIMARY",
    "address": "3 Tampines Street 21, Singapore 529393"
  },
  {
    "name": "YUSOF ISHAK SECONDARY SCHOOL",
    "lat": 1.40693702458178,
    "lon": 103.896275149571,
    "level": "SECONDARY (S1-S5)",
    "address": "8 Sumang Walk, Singapore 828676"
  },
  {
    "name": "YUYING SECONDARY SCHOOL",
    "lat": 1.35713595302467,
    "lon": 103.890194755287,
    "level": "SECONDARY (S1-S5)",
    "address": "47 Hougang Avenue 1, Singapore 538884"
  },
  {
    "name": "ZHANGDE PRIMARY SCHOOL",
    "lat": 1.28421153855474,
    "lon": 103.825951884637,
    "level": "PRIMARY",
    "address": "51 Jalan Membina, Singapore 169485"
  },
  {
    "name": "ZHENGHUA PRIMARY SCHOOL",
    "lat": 1.37942873617052,
    "lon": 103.76970317201,
    "level": "PRIMARY",
    "address": "9 Fajar Road, Singapore 679002"
  },
  {
    "name": "ZHENGHUA SECONDARY SCHOOL",
    "lat": 1.38836583415352,
    "lon": 103.765510638527,
    "level": "SECONDARY (S1-S5)",
    "address": "62 Bukit Panjang Ring Road, Singapore 679962"
  },
  {
    "name": "ZHONGHUA PRIMARY SCHOOL",
    "lat": 1.36026072476019,
    "lon": 103.869712517383,
    "level": "PRIMARY",
    "address": "12 Serangoon Avenue 4, Singapore 556095"
  },
  {
    "name": "ZHONGHUA SECONDARY SCHOOL",
    "lat": 1.34840720846208,
    "lon": 103.869430481414,
    "level": "SECONDARY (S1-S5)",
    "address": "13 Serangoon Avenue 3, Singapore 556123"
  }
]
