[
  {
    "name": "United World College of South East Asia (Dover)",
    "lat": 1.3039,
    "lon": 103.7801,
    "level": "INTERNATIONAL"
  },
  {
    "name": "United World College of South East Asia (East)",
    "lat": 1.3575,
    "lon": 103.945,
    "level": "INTERNATIONAL"
  },
  {
    "name": "Overseas Family School",
    "lat": 1.382,
    "lon": 103.9389,
    "level": "INTERNATIONAL"
  },
  {
    "name": "Singapore American School",
    "lat": 1.431,
    "lon": 103.7788,
    "level": "INTERNATIONAL"
  },
  {
    "name": "Dulwich College (Singapore)",
    "lat": 1.349,
    "lon": 103.7431,
    "level": "INTERNATIONAL"
  },
  {
    "name": "Tanglin Trust School",
    "lat": 1.2977,
    "lon": 103.7972,
    "level": "INTERNATIONAL"
  },
  {
    "name": "Australian International School",
    "lat": 1.3516,
    "lon": 103.8681,
    "level": "INTERNATIONAL"
  },
  {
    "name": "St. Joseph's Institution International",
    "lat": 1.3359,
    "lon": 103.8398,
    "level": "INTERNATIONAL"
  },
  {
    "name": "Stamford American International School",
    "lat": 1.3325,
    "lon": 103.8679,
    "level": "INTERNATIONAL"
  },
  {
    "name": "ADMIRALTY PRIMARY SCHOOL",
    "lat": 1.4426347903311,
    "lon": 103.800040119743,
    "level": "PRIMARY"
  },
  {
    "name": "ADMIRALTY SECONDARY SCHOOL",
    "lat": 1.44589068910993,
    "lon": 103.802398196596,
    "level": "SECONDARY (S1-S5)"
  },
  {
    "name": "AHMAD IBRAHIM PRIMARY SCHOOL",
    "lat": 1.43315271543517,
    "lon": 103.832942401086,
    "level": "PRIMARY"
  },
  {
    "name": "AHMAD IBRAHIM SECONDARY SCHOOL",
    "lat": 1.43605975368804,
    "lon": 103.829718690077,
    "level": "SECONDARY (S1-S5)"
  },
  {
    "name": "AI TONG SCHOOL",
    "lat": 1.3605834338904,
    "lon": 103.833020333986,
    "level": "PRIMARY"
  },
  {
    "name": "ALEXANDRA PRIMARY SCHOOL",
    "lat": 1.29133439161334,
    "lon": 103.824424680531,
    "level": "PRIMARY"
  },
  {
    "name": "ANCHOR GREEN PRIMARY SCHOOL",
    "lat": 1.39036998654612,
    "lon": 103.887165375933,
    "level": "PRIMARY"
  },
  {
    "name": "ANDERSON PRIMARY SCHOOL",
    "lat": 1.38419941907925,
    "lon": 103.841411716006,
    "level": "PRIMARY"
  },
  {
    "name": "ANDERSON SECONDARY SCHOOL",
    "lat": 1.37434001701177,
    "lon": 103.851554107068,
    "level": "SECONDARY (S1-S5)"
  },
  {
    "name": "ANDERSON SERANGOON JUNIOR COLLEGE",
    "lat": 1.36504342002442,
    "lon": 103.887038809373,
    "level": "JUNIOR COLLEGE"
  },
  {
    "name": "ANG MO KIO PRIMARY SCHOOL",
    "lat": 1.36932176584608,
    "lon": 103.839630858752,
    "level": "PRIMARY"
  },
  {
    "name": "ANG MO KIO SECONDARY SCHOOL",
    "lat": 1.36733710171069,
    "lon": 103.842154973672,
    "level": "SECONDARY (S1-S5)"
  },
  {
    "name": "ANGLICAN HIGH SCHOOL",
    "lat": 1.33058126205128,
    "lon": 103.941082513081,
    "level": "SECONDARY (S1-S4)"
  },
  {
    "name": "ANGLO-CHINESE JUNIOR COLLEGE",
    "lat": 1.30304255193392,
    "lon": 103.785358436408,
    "level": "JUNIOR COLLEGE"
  },
  {
    "name": "ANGLO-CHINESE SCHOOL (BARKER ROAD)",
    "lat": 1.31961649151328,
    "lon": 103.835772689988,
    "level": "SECONDARY (S1-S5)"
  },
  {
    "name": "ANGLO-CHINESE SCHOOL (JUNIOR)",
    "lat": 1.30935041274966,
    "lon": 103.840950265464,
    "level": "PRIMARY"
  },
  {
    "name": "ANGLO-CHINESE SCHOOL (PRIMARY)",
    "lat": 1.31871860621788,
    "lon": 103.83534516884,
    "level": "PRIMARY"
  },
  {
    "name": "ANGSANA PRIMARY SCHOOL",
    "lat": 1.36360590588314,
    "lon": 103.9389409004,
    "level": "PRIMARY"
  },
  {
    "name": "ASSUMPTION ENGLISH SCHOOL",
    "lat": 1.36916295281535,
    "lon": 103.767937546001,
    "level": "SECONDARY (S1-S5)"
  },
  {
    "name": "ASSUMPTION PATHWAY SCHOOL",
    "lat": 1.3696707043227,
    "lon": 103.765959130581,
    "level": "SECONDARY (S1-S4)"
  },
  {
    "name": "BARTLEY SECONDARY SCHOOL",
    "lat": 1.33995415587811,
    "lon": 103.882806211705,
    "level": "SECONDARY (S1-S5)"
  },
  {
    "name": "BEACON PRIMARY SCHOOL",
    "lat": 1.38394936211823,
    "lon": 103.773632022975,
    "level": "PRIMARY"
  },
  {
    "name": "BEATTY SECONDARY SCHOOL",
    "lat": 1.341790284928,
    "lon": 103.852280842345,
    "level": "SECONDARY (S1-S5)"
  },
  {
    "name": "BEDOK GREEN PRIMARY SCHOOL",
    "lat": 1.32399627990304,
    "lon": 103.937745023577,
    "level": "PRIMARY"
  },
  {
    "name": "BEDOK GREEN SECONDARY SCHOOL",
    "lat": 1.33451947288431,
    "lon": 103.935028383346,
    "level": "SECONDARY (S1-S5)"
  },
  {
    "name": "BEDOK SOUTH SECONDARY SCHOOL",
    "lat": 1.32513655159184,
    "lon": 103.950989139261,
    "level": "SECONDARY (S1-S5)"
  },
  {
    "name": "BEDOK VIEW SECONDARY SCHOOL",
    "lat": 1.32415704029686,
    "lon": 103.943776245024,
    "level": "SECONDARY (S1-S5)"
  },
  {
    "name": "BENDEMEER PRIMARY SCHOOL",
    "lat": 1.32220848530291,
    "lon": 103.865351336085,
    "level": "PRIMARY"
  },
  {
    "name": "BENDEMEER SECONDARY SCHOOL",
    "lat": 1.32461111307996,
    "lon": 103.860970284401,
    "level": "SECONDARY (S1-S5)"
  },
  {
    "name": "BLANGAH RISE PRIMARY SCHOOL",
    "lat": 1.27612047924037,
    "lon": 103.808628535239,
    "level": "PRIMARY"
  },
  {
    "name": "BOON LAY GARDEN PRIMARY SCHOOL",
    "lat": 1.34284013791617,
    "lon": 103.712858381937,
    "level": "PRIMARY"
  },
  {
    "name": "BOON LAY SECONDARY SCHOOL",
    "lat": 1.34272216334333,
    "lon": 103.701891453912,
    "level": "SECONDARY (S1-S5)"
  },
  {
    "name": "BOWEN SECONDARY SCHOOL",
    "lat": 1.37035994436209,
    "lon": 103.877659577677,
    "level": "SECONDARY (S1-S5)"
  },
  {
    "name": "BROADRICK SECONDARY SCHOOL",
    "lat": 1.30705061123433,
    "lon": 103.886917922608,
    "level": "SECONDARY (S1-S5)"
  },
  {
    "name": "BUKIT BATOK SECONDARY SCHOOL",
    "lat": 1.34849111079052,
    "lon": 103.74087370482,
    "level": "SECONDARY (S1-S5)"
  },
  {
    "name": "BUKIT MERAH SECONDARY SCHOOL",
    "lat": 1.28569283064288,
    "lon": 103.813438929393,
    "level": "SECONDARY (S1-S5)"
  },
  {
    "name": "BUKIT PANJANG GOVT. HIGH SCHOOL",
    "lat": 1.38224243360043,
    "lon": 103.738361221869,
    "level": "SECONDARY (S1-S5)"
  },
  {
    "name": "BUKIT PANJANG PRIMARY SCHOOL",
    "lat": 1.37350089986584,
    "lon": 103.769417337654,
    "level": "PRIMARY"
  },
  {
    "name": "BUKIT TIMAH PRIMARY SCHOOL",
    "lat": 1.3372995575169,
    "lon": 103.766828720721,
    "level": "PRIMARY"
  },
  {
    "name": "BUKIT VIEW PRIMARY SCHOOL",
    "lat": 1.34586054788695,
    "lon": 103.75366641455,
    "level": "PRIMARY"
  },
  {
    "name": "BUKIT VIEW SECONDARY SCHOOL",
    "lat": 1.3457330554294,
    "lon": 103.752226593984,
    "level": "SECONDARY (S1-S5)"
  },
  {
    "name": "CANBERRA PRIMARY SCHOOL",
    "lat": 1.45125024371543,
    "lon": 103.815858858929,
    "level": "PRIMARY"
  },
  {
    "name": "CANBERRA SECONDARY SCHOOL",
    "lat": 1.45319086315972,
    "lon": 103.814203583818,
    "level": "SECONDARY (S1-S5)"
  },
  {
    "name": "CANOSSA CATHOLIC PRIMARY SCHOOL",
    "lat": 1.32664424544839,
    "lon": 103.882227964852,
    "level": "PRIMARY"
  },
  {
    "name": "CANTONMENT PRIMARY SCHOOL",
    "lat": 1.27547252623201,
    "lon": 103.839962631748,
    "level": "PRIMARY"
  },
  {
    "name": "CASUARINA PRIMARY SCHOOL",
    "lat": 1.37246063927999,
    "lon": 103.957020286115,
    "level": "PRIMARY"
  },
  {
    "name": "CATHOLIC JUNIOR COLLEGE",
    "lat": 1.32455605783219,
    "lon": 103.835028842353,
    "level": "JUNIOR COLLEGE"
  },
  {
    "name": "CEDAR GIRLS' SECONDARY SCHOOL",
    "lat": 1.33375800216334,
    "lon": 103.873933064886,
    "level": "SECONDARY (S1-S4)"
  },
  {
    "name": "CEDAR PRIMARY SCHOOL",
    "lat": 1.33566084356265,
    "lon": 103.87562006259,
    "level": "PRIMARY"
  },
  {
    "name": "CHANGKAT CHANGI SECONDARY SCHOOL",
    "lat": 1.33950630072876,
    "lon": 103.953245525564,
    "level": "SECONDARY (S1-S5)"
  },
  {
    "name": "CHANGKAT PRIMARY SCHOOL",
    "lat": 1.34023163951633,
    "lon": 103.952080114035,
    "level": "PRIMARY"
  },
  {
    "name": "CHIJ (KATONG) PRIMARY",
    "lat": 1.30648535277087,
    "lon": 103.911105620496,
    "level": "PRIMARY"
  },
  {
    "name": "CHIJ (KELLOCK)",
    "lat": 1.30648535277087,
    "lon": 103.911105620496,
    "level": "PRIMARY"
  },
  {
    "name": "CHIJ KATONG CONVENT",
    "lat": 1.30644268034894,
    "lon": 103.917144350028,
    "level": "SECONDARY (S1-S5)"
  },
  {
    "name": "CHIJ OUR LADY OF GOOD COUNSEL",
    "lat": 1.35742952269615,
    "lon": 103.864009397373,
    "level": "PRIMARY"
  },
  {
    "name": "CHIJ OUR LADY OF THE NATIVITY",
    "lat": 1.37330297140128,
    "lon": 103.897575728303,
    "level": "PRIMARY"
  },
  {
    "name": "CHIJ OUR LADY QUEEN OF PEACE",
    "lat": 1.36649865720247,
    "lon": 103.767457467964,
    "level": "PRIMARY"
  },
  {
    "name": "CHIJ PRIMARY (TOA PAYOH)",
    "lat": 1.33275264711587,
    "lon": 103.841847263786,
    "level": "PRIMARY"
  },
  {
    "name": "CHIJ SECONDARY (TOA PAYOH)",
    "lat": 1.33246079948303,
    "lon": 103.843271625083,
    "level": "SECONDARY (S1-S5)"
  },
  {
    "name": "CHIJ ST. JOSEPH'S CONVENT",
    "lat": 1.39175222260369,
    "lon": 103.902464991543,
    "level": "SECONDARY (S1-S5)"
  },
  {
    "name": "CHIJ ST. THERESA'S CONVENT",
    "lat": 1.27535177510054,
    "lon": 103.822440701642,
    "level": "SECONDARY (S1-S5)"
  },
  {
    "name": "CHONGFU SCHOOL",
    "lat": 1.43839562897006,
    "lon": 103.839309173817,
    "level": "PRIMARY"
  },
  {
    "name": "CHONGZHENG PRIMARY SCHOOL",
    "lat": 1.35061130568554,
    "lon": 103.951317297552,
    "level": "PRIMARY"
  },
  {
    "name": "CHRIST CHURCH SECONDARY SCHOOL",
    "lat": 1.42656780901455,
    "lon": 103.793451105242,
    "level": "SECONDARY (S1-S5)"
  },
  {
    "name": "CHUA CHU KANG PRIMARY SCHOOL",
    "lat": 1.37775890093367,
    "lon": 103.741832917421,
    "level": "PRIMARY"
  },
  {
    "name": "CHUA CHU KANG SECONDARY SCHOOL",
    "lat": 1.38333422637073,
    "lon": 103.75510327583,
    "level": "SECONDARY (S1-S5)"
  },
  {
    "name": "CHUNG CHENG HIGH SCHOOL (MAIN)",
    "lat": 1.30509154753048,
    "lon": 103.891653229373,
    "level": "SECONDARY (S1-S4)"
  },
  {
    "name": "CHUNG CHENG HIGH SCHOOL (YISHUN)",
    "lat": 1.41922603586175,
    "lon": 103.837390782849,
    "level": "SECONDARY (S1-S5)"
  },
  {
    "name": "CLEMENTI PRIMARY SCHOOL",
    "lat": 1.31506321827875,
    "lon": 103.763144493687,
    "level": "PRIMARY"
  },
  {
    "name": "CLEMENTI TOWN SECONDARY SCHOOL",
    "lat": 1.31553912945073,
    "lon": 103.762020598524,
    "level": "SECONDARY (S1-S5)"
  },
  {
    "name": "COMMONWEALTH SECONDARY SCHOOL",
    "lat": 1.31920395934801,
    "lon": 103.745637393049,
    "level": "SECONDARY (S1-S5)"
  },
  {
    "name": "COMPASSVALE PRIMARY SCHOOL",
    "lat": 1.39444529636566,
    "lon": 103.897812229905,
    "level": "PRIMARY"
  },
  {
    "name": "COMPASSVALE SECONDARY SCHOOL",
    "lat": 1.39614083952009,
    "lon": 103.899847164494,
    "level": "SECONDARY (S1-S5)"
  },
  {
    "name": "CONCORD PRIMARY SCHOOL",
    "lat": 1.38026516111464,
    "lon": 103.736554295636,
    "level": "PRIMARY"
  },
  {
    "name": "CORPORATION PRIMARY SCHOOL",
    "lat": 1.35148548772662,
    "lon": 103.707578404944,
    "level": "PRIMARY"
  },
  {
    "name": "CRESCENT GIRLS' SCHOOL",
    "lat": 1.29331947077104,
    "lon": 103.817544461755,
    "level": "SECONDARY (S1-S4)"
  },
  {
    "name": "CREST SECONDARY SCHOOL",
    "lat": 1.3431198045076,
    "lon": 103.742628105304,
    "level": "SECONDARY (S1-S4)"
  },
  {
    "name": "DAMAI PRIMARY SCHOOL",
    "lat": 1.33524602829747,
    "lon": 103.921286435321,
    "level": "PRIMARY"
  },
  {
    "name": "DAMAI SECONDARY SCHOOL",
    "lat": 1.33692798510393,
    "lon": 103.927091653438,
    "level": "SECONDARY (S1-S5)"
  },
  {
    "name": "DAZHONG PRIMARY SCHOOL",
    "lat": 1.35906257616677,
    "lon": 103.748122250254,
    "level": "PRIMARY"
  },
  {
    "name": "DE LA SALLE SCHOOL",
    "lat": 1.3947078296399,
    "lon": 103.743201812831,
    "level": "PRIMARY"
  },
  {
    "name": "DEYI SECONDARY SCHOOL",
    "lat": 1.36599702567717,
    "lon": 103.852545772422,
    "level": "SECONDARY (S1-S5)"
  },
  {
    "name": "DUNEARN SECONDARY SCHOOL",
    "lat": 1.36357900792871,
    "lon": 103.74472109107,
    "level": "SECONDARY (S1-S5)"
  },
  {
    "name": "DUNMAN SECONDARY SCHOOL",
    "lat": 1.36065258337022,
    "lon": 103.956213906966,
    "level": "SECONDARY (S1-S5)"
  },
  {
    "name": "EAST SPRING PRIMARY SCHOOL",
    "lat": 1.35268400746357,
    "lon": 103.961676849165,
    "level": "PRIMARY"
  },
  {
    "name": "EAST SPRING SECONDARY SCHOOL",
    "lat": 1.35622508992581,
    "lon": 103.960640700298,
    "level": "SECONDARY (S1-S5)"
  },
  {
    "name": "EDGEFIELD PRIMARY SCHOOL",
    "lat": 1.40009139510996,
    "lon": 103.907847599114,
    "level": "PRIMARY"
  },
  {
    "name": "EDGEFIELD SECONDARY SCHOOL",
    "lat": 1.40059309981824,
    "lon": 103.902687385465,
    "level": "SECONDARY (S1-S5)"
  },
  {
    "name": "ELIAS PARK PRIMARY SCHOOL",
    "lat": 1.37505696315817,
    "lon": 103.945289416873,
    "level": "PRIMARY"
  },
  {
    "name": "ENDEAVOUR PRIMARY SCHOOL",
    "lat": 1.45403837499301,
    "lon": 103.817436231731,
    "level": "PRIMARY"
  },
  {
    "name": "EUNOIA JUNIOR COLLEGE",
    "lat": 1.36213757183547,
    "lon": 103.841286169122,
    "level": "JUNIOR COLLEGE"
  },
  {
    "name": "EVERGREEN PRIMARY SCHOOL",
    "lat": 1.44414835451585,
    "lon": 103.794545295922,
    "level": "PRIMARY"
  },
  {
    "name": "EVERGREEN SECONDARY SCHOOL",
    "lat": 1.44149131273737,
    "lon": 103.794137756171,
    "level": "SECONDARY (S1-S5)"
  },
  {
    "name": "FAIRFIELD METHODIST SCHOOL (PRIMARY)",
    "lat": 1.30100441916733,
    "lon": 103.785455606827,
    "level": "PRIMARY"
  },
  {
    "name": "FAIRFIELD METHODIST SCHOOL (SECONDARY)",
    "lat": 1.30163374395823,
    "lon": 103.784099647149,
    "level": "SECONDARY (S1-S5)"
  },
  {
    "name": "FARRER PARK PRIMARY SCHOOL",
    "lat": 1.31243078021903,
    "lon": 103.850770929023,
    "level": "PRIMARY"
  },
  {
    "name": "FENGSHAN PRIMARY SCHOOL",
    "lat": 1.32980598760785,
    "lon": 103.931710293058,
    "level": "PRIMARY"
  },
  {
    "name": "FERN GREEN PRIMARY SCHOOL",
    "lat": 1.39726966050479,
    "lon": 103.880330305684,
    "level": "PRIMARY"
  },
  {
    "name": "FERNVALE PRIMARY SCHOOL",
    "lat": 1.38997939874565,
    "lon": 103.874100979909,
    "level": "PRIMARY"
  },
  {
    "name": "FIRST TOA PAYOH PRIMARY SCHOOL",
    "lat": 1.34032299499938,
    "lon": 103.855529906182,
    "level": "PRIMARY"
  },
  {
    "name": "FRONTIER PRIMARY SCHOOL",
    "lat": 1.3366431119298,
    "lon": 103.699682818103,
    "level": "PRIMARY"
  },
  {
    "name": "FUCHUN PRIMARY SCHOOL",
    "lat": 1.43047990810126,
    "lon": 103.778192944298,
    "level": "PRIMARY"
  },
  {
    "name": "FUHUA PRIMARY SCHOOL",
    "lat": 1.33650394789627,
    "lon": 103.736103745748,
    "level": "PRIMARY"
  },
  {
    "name": "FUHUA SECONDARY SCHOOL",
    "lat": 1.34701408913756,
    "lon": 103.72652089832,
    "level": "SECONDARY (S1-S5)"
  },
  {
    "name": "GAN ENG SENG PRIMARY SCHOOL",
    "lat": 1.28595540299542,
    "lon": 103.815228209494,
    "level": "PRIMARY"
  },
  {
    "name": "GAN ENG SENG SCHOOL",
    "lat": 1.28907114485773,
    "lon": 103.823733673089,
    "level": "SECONDARY (S1-S5)"
  },
  {
    "name": "GEYLANG METHODIST SCHOOL (PRIMARY)",
    "lat": 1.31814416827374,
    "lon": 103.883628501601,
    "level": "PRIMARY"
  },
  {
    "name": "GEYLANG METHODIST SCHOOL (SECONDARY)",
    "lat": 1.31764900474601,
    "lon": 103.882661129303,
    "level": "SECONDARY (S1-S5)"
  },
  {
    "name": "GONGSHANG PRIMARY SCHOOL",
    "lat": 1.35711606790292,
    "lon": 103.949144797277,
    "level": "PRIMARY"
  },
  {
    "name": "GREENDALE PRIMARY SCHOOL",
    "lat": 1.39646367174598,
    "lon": 103.912450421018,
    "level": "PRIMARY"
  },
  {
    "name": "GREENDALE SECONDARY SCHOOL",
    "lat": 1.39696019936894,
    "lon": 103.91170014084,
    "level": "SECONDARY (S1-S5)"
  },
  {
    "name": "GREENRIDGE PRIMARY SCHOOL",
    "lat": 1.3858892193692,
    "lon": 103.767794469258,
    "level": "PRIMARY"
  },
  {
    "name": "GREENRIDGE SECONDARY SCHOOL",
    "lat": 1.375600053443,
    "lon": 103.763998914082,
    "level": "SECONDARY (S1-S5)"
  },
  {
    "name": "GREENWOOD PRIMARY SCHOOL",
    "lat": 1.43989958331782,
    "lon": 103.804725587384,
    "level": "PRIMARY"
  },
  {
    "name": "GUANGYANG SECONDARY SCHOOL",
    "lat": 1.34440943525695,
    "lon": 103.850212163078,
    "level": "SECONDARY (S1-S5)"
  },
  {
    "name": "HAI SING CATHOLIC SCHOOL",
    "lat": 1.3743371707478,
    "lon": 103.954544548905,
    "level": "SECONDARY (S1-S5)"
  },
  {
    "name": "HAIG GIRLS' SCHOOL",
    "lat": 1.31194344271383,
    "lon": 103.902902557195,
    "level": "PRIMARY"
  },
  {
    "name": "HENRY PARK PRIMARY SCHOOL",
    "lat": 1.31667646178347,
    "lon": 103.784296227747,
    "level": "PRIMARY"
  },
  {
    "name": "HILLGROVE SECONDARY SCHOOL",
    "lat": 1.35273576615912,
    "lon": 103.752986488399,
    "level": "SECONDARY (S1-S5)"
  },
  {
    "name": "HOLY INNOCENTS' HIGH SCHOOL",
    "lat": 1.37154508822261,
    "lon": 103.896398814264,
    "level": "SECONDARY (S1-S5)"
  },
  {
    "name": "HOLY INNOCENTS' PRIMARY SCHOOL",
    "lat": 1.36693830877349,
    "lon": 103.894114899795,
    "level": "PRIMARY"
  },
  {
    "name": "HONG WEN SCHOOL",
    "lat": 1.32175581103999,
    "lon": 103.857733816796,
    "level": "PRIMARY"
  },
  {
    "name": "HORIZON PRIMARY SCHOOL",
    "lat": 1.40000881091199,
    "lon": 103.91307153053,
    "level": "PRIMARY"
  },
  {
    "name": "HOUGANG PRIMARY SCHOOL",
    "lat": 1.37738245231461,
    "lon": 103.880805274557,
    "level": "PRIMARY"
  },
  {
    "name": "HOUGANG SECONDARY SCHOOL",
    "lat": 1.3776287955319,
    "lon": 103.882539108965,
    "level": "SECONDARY (S1-S5)"
  },
  {
    "name": "HUA YI SECONDARY SCHOOL",
    "lat": 1.35234365488339,
    "lon": 103.721832320169,
    "level": "SECONDARY (S1-S5)"
  },
  {
    "name": "HUAMIN PRIMARY SCHOOL",
    "lat": 1.42697284512936,
    "lon": 103.844240226564,
    "level": "PRIMARY"
  },
  {
    "name": "INNOVA PRIMARY SCHOOL",
    "lat": 1.42896700684852,
    "lon": 103.790607539185,
    "level": "PRIMARY"
  },
  {
    "name": "JIEMIN PRIMARY SCHOOL",
    "lat": 1.42760611127302,
    "lon": 103.830401099055,
    "level": "PRIMARY"
  },
  {
    "name": "JING SHAN PRIMARY SCHOOL",
    "lat": 1.37196445720109,
    "lon": 103.851763531681,
    "level": "PRIMARY"
  },
  {
    "name": "JUNYUAN PRIMARY SCHOOL",
    "lat": 1.34787074766746,
    "lon": 103.939221709073,
    "level": "PRIMARY"
  },
  {
    "name": "JUNYUAN SECONDARY SCHOOL",
    "lat": 1.35361315263537,
    "lon": 103.933886165824,
    "level": "SECONDARY (S1-S5)"
  },
  {
    "name": "JURONG PIONEER JUNIOR COLLEGE",
    "lat": 1.38437406410733,
    "lon": 103.75437461519,
    "level": "JUNIOR COLLEGE"
  },
  {
    "name": "JURONG PRIMARY SCHOOL",
    "lat": 1.34843859698946,
    "lon": 103.733156566858,
    "level": "PRIMARY"
  },
  {
    "name": "JURONG SECONDARY SCHOOL",
    "lat": 1.33002032220942,
    "lon": 103.723952961648,
    "level": "SECONDARY (S1-S5)"
  },
  {
    "name": "JURONG WEST PRIMARY SCHOOL",
    "lat": 1.33917519796104,
    "lon": 103.698803732244,
    "level": "PRIMARY"
  },
  {
    "name": "JURONG WEST SECONDARY SCHOOL",
    "lat": 1.33525634688323,
    "lon": 103.702098904443,
    "level": "SECONDARY (S1-S5)"
  },
  {
    "name": "JURONGVILLE SECONDARY SCHOOL",
    "lat": 1.35128862770284,
    "lon": 103.728907710089,
    "level": "SECONDARY (S1-S5)"
  },
  {
    "name": "JUYING SECONDARY SCHOOL",
    "lat": 1.3387227734133,
    "lon": 103.687310264575,
    "level": "SECONDARY (S1-S5)"
  },
  {
    "name": "KEMING PRIMARY SCHOOL",
    "lat": 1.34552849960874,
    "lon": 103.756449399351,
    "level": "PRIMARY"
  },
  {
    "name": "KENT RIDGE SECONDARY SCHOOL",
    "lat": 1.30122773426098,
    "lon": 103.764889617566,
    "level": "SECONDARY (S1-S5)"
  },
  {
    "name": "KHENG CHENG SCHOOL",
    "lat": 1.33728818369962,
    "lon": 103.847141122849,
    "level": "PRIMARY"
  },
  {
    "name": "KONG HWA SCHOOL",
    "lat": 1.31099674009193,
    "lon": 103.888352029067,
    "level": "PRIMARY"
  },
  {
    "name": "KRANJI PRIMARY SCHOOL",
    "lat": 1.39356050497104,
    "lon": 103.747362720939,
    "level": "PRIMARY"
  },
  {
    "name": "KRANJI SECONDARY SCHOOL",
    "lat": 1.39005109871311,
    "lon": 103.741190664845,
    "level": "SECONDARY (S1-S5)"
  },
  {
    "name": "KUO CHUAN PRESBYTERIAN PRIMARY SCHOOL",
    "lat": 1.34939813669536,
    "lon": 103.855018233311,
    "level": "PRIMARY"
  },
  {
    "name": "KUO CHUAN PRESBYTERIAN SECONDARY SCHOOL",
    "lat": 1.35017129930314,
    "lon": 103.854983746416,
    "level": "SECONDARY (S1-S5)"
  },
  {
    "name": "LAKESIDE PRIMARY SCHOOL",
    "lat": 1.33820397704287,
    "lon": 103.718089546664,
    "level": "PRIMARY"
  },
  {
    "name": "LIANHUA PRIMARY SCHOOL",
    "lat": 1.35424191127295,
    "lon": 103.754165828711,
    "level": "PRIMARY"
  },
  {
    "name": "LOYANG VIEW SECONDARY SCHOOL",
    "lat": 1.36658417167238,
    "lon": 103.956944585725,
    "level": "SECONDARY (S1-S5)"
  },
  {
    "name": "MAHA BODHI SCHOOL",
    "lat": 1.32847086658384,
    "lon": 103.901298737314,
    "level": "PRIMARY"
  },
  {
    "name": "MANJUSRI SECONDARY SCHOOL",
    "lat": 1.32747123084846,
    "lon": 103.901719963831,
    "level": "SECONDARY (S1-S5)"
  },
  {
    "name": "MARSILING PRIMARY SCHOOL",
    "lat": 1.43383904037059,
    "lon": 103.773643013846,
    "level": "PRIMARY"
  },
  {
    "name": "MARSILING SECONDARY SCHOOL",
    "lat": 1.43664424769955,
    "lon": 103.776008090454,
    "level": "SECONDARY (S1-S5)"
  },
  {
    "name": "MARYMOUNT CONVENT SCHOOL",
    "lat": 1.34043840661368,
    "lon": 103.839811736775,
    "level": "PRIMARY"
  },
  {
    "name": "MAYFLOWER PRIMARY SCHOOL",
    "lat": 1.37637683547682,
    "lon": 103.843252803742,
    "level": "PRIMARY"
  },
  {
    "name": "MAYFLOWER SECONDARY SCHOOL",
    "lat": 1.36827266209722,
    "lon": 103.835360726863,
    "level": "SECONDARY (S1-S5)"
  },
  {
    "name": "MEE TOH SCHOOL",
    "lat": 1.39485356081865,
    "lon": 103.90857257736,
    "level": "PRIMARY"
  },
  {
    "name": "MERIDIAN PRIMARY SCHOOL",
    "lat": 1.37550677054835,
    "lon": 103.934953276155,
    "level": "PRIMARY"
  },
  {
    "name": "MERIDIAN SECONDARY SCHOOL",
    "lat": 1.3672468492013,
    "lon": 103.948972483629,
    "level": "SECONDARY (S1-S5)"
  },
  {
    "name": "METHODIST GIRLS' SCHOOL (PRIMARY)",
    "lat": 1.33266213599636,
    "lon": 103.783382114018,
    "level": "PRIMARY"
  },
  {
    "name": "METHODIST GIRLS' SCHOOL (SECONDARY)",
    "lat": 1.33266213599636,
    "lon": 103.783382114018,
    "level": "SECONDARY (S1-S4)"
  },
  {
    "name": "MONTFORT JUNIOR SCHOOL",
    "lat": 1.37362445234082,
    "lon": 103.889741457901,
    "level": "PRIMARY"
  },
  {
    "name": "MONTFORT SECONDARY SCHOOL",
    "lat": 1.37396131656912,
    "lon": 103.888928372577,
    "level": "SECONDARY (S1-S5)"
  },
  {
    "name": "NAN CHIAU HIGH SCHOOL",
    "lat": 1.38879582498399,
    "lon": 103.890004423764,
    "level": "SECONDARY (S1-S5)"
  },
  {
    "name": "NAN CHIAU PRIMARY SCHOOL",
    "lat": 1.39221149906592,
    "lon": 103.891180928186,
    "level": "PRIMARY"
  },
  {
    "name": "NAN HUA HIGH SCHOOL",
    "lat": 1.30809529518605,
    "lon": 103.768561446725,
    "level": "SECONDARY (S1-S5)"
  },
  {
    "name": "NAN HUA PRIMARY SCHOOL",
    "lat": 1.31920159956387,
    "lon": 103.761095065761,
    "level": "PRIMARY"
  },
  {
    "name": "NANYANG GIRLS' HIGH SCHOOL",
    "lat": 1.33058326666479,
    "lon": 103.802420979943,
    "level": "SECONDARY (S1-S4)"
  },
  {
    "name": "NANYANG JUNIOR COLLEGE",
    "lat": 1.35028314949236,
    "lon": 103.866498721912,
    "level": "JUNIOR COLLEGE"
  },
  {
    "name": "NANYANG PRIMARY SCHOOL",
    "lat": 1.32107094241153,
    "lon": 103.807681852799,
    "level": "PRIMARY"
  },
  {
    "name": "NAVAL BASE PRIMARY SCHOOL",
    "lat": 1.41629226758972,
    "lon": 103.838858273963,
    "level": "PRIMARY"
  },
  {
    "name": "NAVAL BASE SECONDARY SCHOOL",
    "lat": 1.41937881620441,
    "lon": 103.831050390247,
    "level": "SECONDARY (S1-S5)"
  },
  {
    "name": "NEW TOWN PRIMARY SCHOOL",
    "lat": 1.29981138884057,
    "lon": 103.799964819895,
    "level": "PRIMARY"
  },
  {
    "name": "NEW TOWN SECONDARY SCHOOL",
    "lat": 1.30977590011357,
    "lon": 103.77318863421,
    "level": "SECONDARY (S1-S5)"
  },
  {
    "name": "NGEE ANN PRIMARY SCHOOL",
    "lat": 1.30553224180437,
    "lon": 103.917570005713,
    "level": "PRIMARY"
  },
  {
    "name": "NGEE ANN SECONDARY SCHOOL",
    "lat": 1.35447525755806,
    "lon": 103.956747262496,
    "level": "SECONDARY (S1-S5)"
  },
  {
    "name": "NORTH SPRING PRIMARY SCHOOL",
    "lat": 1.38706146494859,
    "lon": 103.903202683028,
    "level": "PRIMARY"
  },
  {
    "name": "NORTH VIEW PRIMARY SCHOOL",
    "lat": 1.42745159462566,
    "lon": 103.848378442893,
    "level": "PRIMARY"
  },
  {
    "name": "NORTH VISTA PRIMARY SCHOOL",
    "lat": 1.38289339218536,
    "lon": 103.895854162476,
    "level": "PRIMARY"
  },
  {
    "name": "NORTH VISTA SECONDARY SCHOOL",
    "lat": 1.381131285358,
    "lon": 103.899188813886,
    "level": "SECONDARY (S1-S5)"
  },
  {
    "name": "NORTHBROOKS SECONDARY SCHOOL",
    "lat": 1.42081285020652,
    "lon": 103.845147332528,
    "level": "SECONDARY (S1-S5)"
  },
  {
    "name": "NORTHLAND PRIMARY SCHOOL",
    "lat": 1.42130404159807,
    "lon": 103.840792923345,
    "level": "PRIMARY"
  },
  {
    "name": "NORTHLAND SECONDARY SCHOOL",
    "lat": 1.43580183362637,
    "lon": 103.840104687784,
    "level": "SECONDARY (S1-S5)"
  },
  {
    "name": "NORTHLIGHT SCHOOL",
    "lat": 1.3191002158167,
    "lon": 103.85575955353,
    "level": "SECONDARY (S1-S4)"
  },
  {
    "name": "NORTHOAKS PRIMARY SCHOOL",
    "lat": 1.45732867302094,
    "lon": 103.814075611175,
    "level": "PRIMARY"
  },
  {
    "name": "NORTHSHORE PRIMARY SCHOOL",
    "lat": 1.41842322079348,
    "lon": 103.905147201163,
    "level": "PRIMARY"
  },
  {
    "name": "OASIS PRIMARY SCHOOL",
    "lat": 1.40507184758584,
    "lon": 103.911200193835,
    "level": "PRIMARY"
  },
  {
    "name": "OPERA ESTATE PRIMARY SCHOOL",
    "lat": 1.31996876377748,
    "lon": 103.923752668632,
    "level": "PRIMARY"
  },
  {
    "name": "ORCHID PARK SECONDARY SCHOOL",
    "lat": 1.41532032779634,
    "lon": 103.837859241343,
    "level": "SECONDARY (S1-S5)"
  },
  {
    "name": "OUTRAM SECONDARY SCHOOL",
    "lat": 1.39775020428346,
    "lon": 103.891230426312,
    "level": "SECONDARY (S1-S5)"
  },
  {
    "name": "PALM VIEW PRIMARY SCHOOL",
    "lat": 1.38376923022123,
    "lon": 103.891354675017,
    "level": "PRIMARY"
  },
  {
    "name": "PARK VIEW PRIMARY SCHOOL",
    "lat": 1.37801687647812,
    "lon": 103.9392021807,
    "level": "PRIMARY"
  },
  {
    "name": "PASIR RIS CREST SECONDARY SCHOOL",
    "lat": 1.37284060102246,
    "lon": 103.959728202919,
    "level": "SECONDARY (S1-S5)"
  },
  {
    "name": "PASIR RIS PRIMARY SCHOOL",
    "lat": 1.37245132722087,
    "lon": 103.962922699031,
    "level": "PRIMARY"
  },
  {
    "name": "PASIR RIS SECONDARY SCHOOL",
    "lat": 1.35422732653396,
    "lon": 103.948962626204,
    "level": "SECONDARY (S1-S5)"
  },
  {
    "name": "PAYA LEBAR METHODIST GIRLS' SCHOOL (PRIMARY)",
    "lat": 1.3502545600894,
    "lon": 103.884846876112,
    "level": "PRIMARY"
  },
  {
    "name": "PAYA LEBAR METHODIST GIRLS' SCHOOL (SECONDARY)",
    "lat": 1.35096755912522,
    "lon": 103.885120050588,
    "level": "SECONDARY (S1-S5)"
  },
  {
    "name": "PEI CHUN PUBLIC SCHOOL",
    "lat": 1.33677864390672,
    "lon": 103.855341310212,
    "level": "PRIMARY"
  },
  {
    "name": "PEI HWA PRESBYTERIAN PRIMARY SCHOOL",
    "lat": 1.33807302121151,
    "lon": 103.776250903095,
    "level": "PRIMARY"
  },
  {
    "name": "PEI HWA SECONDARY SCHOOL",
    "lat": 1.39037504993234,
    "lon": 103.878461745339,
    "level": "SECONDARY (S1-S5)"
  },
  {
    "name": "PEI TONG PRIMARY SCHOOL",
    "lat": 1.31666529308968,
    "lon": 103.767438999533,
    "level": "PRIMARY"
  },
  {
    "name": "PEICAI SECONDARY SCHOOL",
    "lat": 1.35951583222214,
    "lon": 103.870010749055,
    "level": "SECONDARY (S1-S5)"
  },
  {
    "name": "PEIRCE SECONDARY SCHOOL",
    "lat": 1.36665944653812,
    "lon": 103.83021606804,
    "level": "SECONDARY (S1-S5)"
  },
  {
    "name": "PEIYING PRIMARY SCHOOL",
    "lat": 1.41741627551251,
    "lon": 103.830143209875,
    "level": "PRIMARY"
  },
  {
    "name": "PIONEER PRIMARY SCHOOL",
    "lat": 1.35442592930738,
    "lon": 103.732790920197,
    "level": "PRIMARY"
  },
  {
    "name": "POI CHING SCHOOL",
    "lat": 1.35765121877679,
    "lon": 103.935246486174,
    "level": "PRIMARY"
  },
  {
    "name": "PRESBYTERIAN HIGH SCHOOL",
    "lat": 1.38201194250223,
    "lon": 103.843149382823,
    "level": "SECONDARY (S1-S5)"
  },
  {
    "name": "PRINCESS ELIZABETH PRIMARY SCHOOL",
    "lat": 1.34919098857585,
    "lon": 103.740719208011,
    "level": "PRIMARY"
  },
  {
    "name": "PUNGGOL COVE PRIMARY SCHOOL",
    "lat": 1.41158455562454,
    "lon": 103.89890448429,
    "level": "PRIMARY"
  },
  {
    "name": "PUNGGOL GREEN PRIMARY SCHOOL",
    "lat": 1.40172590450528,
    "lon": 103.898794262307,
    "level": "PRIMARY"
  },
  {
    "name": "PUNGGOL PRIMARY SCHOOL",
    "lat": 1.37820062547641,
    "lon": 103.894667159512,
    "level": "PRIMARY"
  },
  {
    "name": "PUNGGOL SECONDARY SCHOOL",
    "lat": 1.40205738421399,
    "lon": 103.909213706482,
    "level": "SECONDARY (S1-S5)"
  },
  {
    "name": "PUNGGOL VIEW PRIMARY SCHOOL",
    "lat": 1.40505250226058,
    "lon": 103.905299026568,
    "level": "PRIMARY"
  },
  {
    "name": "QIFA PRIMARY SCHOOL",
    "lat": 1.3132658326807,
    "lon": 103.756629101811,
    "level": "PRIMARY"
  },
  {
    "name": "QIHUA PRIMARY SCHOOL",
    "lat": 1.44203596557592,
    "lon": 103.788339762066,
    "level": "PRIMARY"
  },
  {
    "name": "QUEENSTOWN PRIMARY SCHOOL",
    "lat": 1.29552905587752,
    "lon": 103.807648475656,
    "level": "PRIMARY"
  },
  {
    "name": "QUEENSTOWN SECONDARY SCHOOL",
    "lat": 1.29352126774652,
    "lon": 103.813190980055,
    "level": "SECONDARY (S1-S5)"
  },
  {
    "name": "QUEENSWAY SECONDARY SCHOOL",
    "lat": 1.30022271592188,
    "lon": 103.802207291625,
    "level": "SECONDARY (S1-S5)"
  },
  {
    "name": "RADIN MAS PRIMARY SCHOOL",
    "lat": 1.27495823622634,
    "lon": 103.824188270373,
    "level": "PRIMARY"
  },
  {
    "name": "RAFFLES GIRLS' PRIMARY SCHOOL",
    "lat": 1.33004178068277,
    "lon": 103.806397828938,
    "level": "PRIMARY"
  },
  {
    "name": "RAFFLES GIRLS' SCHOOL (SECONDARY)",
    "lat": 1.34217479932295,
    "lon": 103.84313404727,
    "level": "SECONDARY (S1-S4)"
  },
  {
    "name": "RED SWASTIKA SCHOOL",
    "lat": 1.33324297847732,
    "lon": 103.934332314404,
    "level": "PRIMARY"
  },
  {
    "name": "REGENT SECONDARY SCHOOL",
    "lat": 1.39327908335682,
    "lon": 103.751034411529,
    "level": "SECONDARY (S1-S5)"
  },
  {
    "name": "RIVER VALLEY PRIMARY SCHOOL",
    "lat": 1.29418347842837,
    "lon": 103.836018941571,
    "level": "PRIMARY"
  },
  {
    "name": "RIVERSIDE PRIMARY SCHOOL",
    "lat": 1.44700426493785,
    "lon": 103.801889031334,
    "level": "PRIMARY"
  },
  {
    "name": "RIVERSIDE SECONDARY SCHOOL",
    "lat": 1.44110157139127,
    "lon": 103.78830823641,
    "level": "SECONDARY (S1-S5)"
  },
  {
    "name": "RIVERVALE PRIMARY SCHOOL",
    "lat": 1.39333506298213,
    "lon": 103.904545253288,
    "level": "PRIMARY"
  },
  {
    "name": "ROSYTH SCHOOL",
    "lat": 1.3728583654058,
    "lon": 103.87477170399,
    "level": "PRIMARY"
  },
  {
    "name": "RULANG PRIMARY SCHOOL",
    "lat": 1.34673868889096,
    "lon": 103.718457955487,
    "level": "PRIMARY"
  },
  {
    "name": "SCHOOL OF SCIENCE AND TECHNOLOGY, SINGAPORE",
    "lat": 1.31292810600277,
    "lon": 103.774011529322,
    "level": "SECONDARY (S1-S4)"
  },
  {
    "name": "SEMBAWANG PRIMARY SCHOOL",
    "lat": 1.4457453096024,
    "lon": 103.821152676215,
    "level": "PRIMARY"
  },
  {
    "name": "SEMBAWANG SECONDARY SCHOOL",
    "lat": 1.44531502131387,
    "lon": 103.816843258118,
    "level": "SECONDARY (S1-S5)"
  },
  {
    "name": "SENG KANG PRIMARY SCHOOL",
    "lat": 1.38925044778224,
    "lon": 103.899527879229,
    "level": "PRIMARY"
  },
  {
    "name": "SENG KANG SECONDARY SCHOOL",
    "lat": 1.38659683143747,
    "lon": 103.898365036709,
    "level": "SECONDARY (S1-S5)"
  },
  {
    "name": "SENGKANG GREEN PRIMARY SCHOOL",
    "lat": 1.3925400930811,
    "lon": 103.874984869551,
    "level": "PRIMARY"
  },
  {
    "name": "SERANGOON GARDEN SECONDARY SCHOOL",
    "lat": 1.36932570490947,
    "lon": 103.869270301476,
    "level": "SECONDARY (S1-S5)"
  },
  {
    "name": "SERANGOON SECONDARY SCHOOL",
    "lat": 1.37465538827443,
    "lon": 103.902138740699,
    "level": "SECONDARY (S1-S5)"
  },
  {
    "name": "SHUQUN PRIMARY SCHOOL",
    "lat": 1.34686967259067,
    "lon": 103.721559387203,
    "level": "PRIMARY"
  },
  {
    "name": "SI LING PRIMARY SCHOOL",
    "lat": 1.43240935732525,
    "lon": 103.786035065192,
    "level": "PRIMARY"
  },
  {
    "name": "SINGAPORE CHINESE GIRLS' PRIMARY SCHOOL",
    "lat": 1.32080725235992,
    "lon": 103.827744749548,
    "level": "PRIMARY"
  },
  {
    "name": "SINGAPORE CHINESE GIRLS' SCHOOL",
    "lat": 1.3206340835184,
    "lon": 103.828164966953,
    "level": "SECONDARY (S1-S4)"
  },
  {
    "name": "SOUTH VIEW PRIMARY SCHOOL",
    "lat": 1.38143123987698,
    "lon": 103.747153671,
    "level": "PRIMARY"
  },
  {
    "name": "SPECTRA SECONDARY SCHOOL",
    "lat": 1.43703750789961,
    "lon": 103.804100467487,
    "level": "SECONDARY (S1-S4)"
  },
  {
    "name": "SPRINGDALE PRIMARY SCHOOL",
    "lat": 1.39528544463377,
    "lon": 103.889416413501,
    "level": "PRIMARY"
  },
  {
    "name": "SPRINGFIELD SECONDARY SCHOOL",
    "lat": 1.34957303471476,
    "lon": 103.930354460693,
    "level": "SECONDARY (S1-S5)"
  },
  {
    "name": "ST ANDREW'S JUNIOR COLLEGE",
    "lat": 1.33306515740956,
    "lon": 103.863576377056,
    "level": "JUNIOR COLLEGE"
  },
  {
    "name": "ST ANDREW'S SCHOOL (JUNIOR)",
    "lat": 1.33140255308868,
    "lon": 103.865117134385,
    "level": "PRIMARY"
  },
  {
    "name": "ST ANDREW'S SCHOOL (SECONDARY)",
    "lat": 1.33069360968075,
    "lon": 103.866249138562,
    "level": "SECONDARY (S1-S5)"
  },
  {
    "name": "ST. ANTHONY'S CANOSSIAN PRIMARY SCHOOL",
    "lat": 1.3347253730189,
    "lon": 103.941234868202,
    "level": "PRIMARY"
  },
  {
    "name": "ST. ANTHONY'S CANOSSIAN SECONDARY SCHOOL",
    "lat": 1.33466313498855,
    "lon": 103.941977166932,
    "level": "SECONDARY (S1-S5)"
  },
  {
    "name": "ST. ANTHONY'S PRIMARY SCHOOL",
    "lat": 1.36411948475833,
    "lon": 103.749251919049,
    "level": "PRIMARY"
  },
  {
    "name": "ST. GABRIEL'S PRIMARY SCHOOL",
    "lat": 1.34930766795555,
    "lon": 103.862309899986,
    "level": "PRIMARY"
  },
  {
    "name": "ST. GABRIEL'S SECONDARY SCHOOL",
    "lat": 1.34648798732177,
    "lon": 103.876094163287,
    "level": "SECONDARY (S1-S5)"
  },
  {
    "name": "ST. HILDA'S PRIMARY SCHOOL",
    "lat": 1.34967978969837,
    "lon": 103.937016363397,
    "level": "PRIMARY"
  },
  {
    "name": "ST. HILDA'S SECONDARY SCHOOL",
    "lat": 1.34973922385379,
    "lon": 103.937608032148,
    "level": "SECONDARY (S1-S5)"
  },
  {
    "name": "ST. JOSEPH'S INSTITUTION JUNIOR",
    "lat": 1.31781476118551,
    "lon": 103.845633334522,
    "level": "PRIMARY"
  },
  {
    "name": "ST. MARGARET'S SCHOOL (PRIMARY)",
    "lat": 1.30390355715254,
    "lon": 103.845955315605,
    "level": "PRIMARY"
  },
  {
    "name": "ST. MARGARET'S SCHOOL (SECONDARY)",
    "lat": 1.31977464050584,
    "lon": 103.809602215402,
    "level": "SECONDARY (S1-S5)"
  },
  {
    "name": "ST. PATRICK'S SCHOOL",
    "lat": 1.30788341871801,
    "lon": 103.917638193713,
    "level": "SECONDARY (S1-S5)"
  },
  {
    "name": "ST. STEPHEN'S SCHOOL",
    "lat": 1.31878997295135,
    "lon": 103.917258129598,
    "level": "PRIMARY"
  },
  {
    "name": "SWISS COTTAGE SECONDARY SCHOOL",
    "lat": 1.36471742697475,
    "lon": 103.750396136688,
    "level": "SECONDARY (S1-S5)"
  },
  {
    "name": "TAMPINES MERIDIAN JUNIOR COLLEGE",
    "lat": 1.37633346909682,
    "lon": 103.936990723441,
    "level": "JUNIOR COLLEGE"
  },
  {
    "name": "TAMPINES NORTH PRIMARY SCHOOL",
    "lat": 1.36048786025607,
    "lon": 103.948768900518,
    "level": "PRIMARY"
  },
  {
    "name": "TAMPINES PRIMARY SCHOOL",
    "lat": 1.34977870805929,
    "lon": 103.944004684986,
    "level": "PRIMARY"
  },
  {
    "name": "TAMPINES SECONDARY SCHOOL",
    "lat": 1.34926094811197,
    "lon": 103.944263709507,
    "level": "SECONDARY (S1-S5)"
  },
  {
    "name": "TANJONG KATONG GIRLS' SCHOOL",
    "lat": 1.3075626184394,
    "lon": 103.896107204542,
    "level": "SECONDARY (S1-S4)"
  },
  {
    "name": "TANJONG KATONG PRIMARY SCHOOL",
    "lat": 1.30525783246242,
    "lon": 103.900162653092,
    "level": "PRIMARY"
  },
  {
    "name": "TANJONG KATONG SECONDARY SCHOOL",
    "lat": 1.30873515955341,
    "lon": 103.897225196199,
    "level": "SECONDARY (S1-S4)"
  },
  {
    "name": "TAO NAN SCHOOL",
    "lat": 1.30528528687321,
    "lon": 103.911553152326,
    "level": "PRIMARY"
  },
  {
    "name": "TECK GHEE PRIMARY SCHOOL",
    "lat": 1.36565018546903,
    "lon": 103.851009800453,
    "level": "PRIMARY"
  },
  {
    "name": "TECK WHYE PRIMARY SCHOOL",
    "lat": 1.38388660469396,
    "lon": 103.753924558586,
    "level": "PRIMARY"
  },
  {
    "name": "TELOK KURAU PRIMARY SCHOOL",
    "lat": 1.33109611001931,
    "lon": 103.911005345855,
    "level": "PRIMARY"
  },
  {
    "name": "TEMASEK PRIMARY SCHOOL",
    "lat": 1.31720341663064,
    "lon": 103.94575943784,
    "level": "PRIMARY"
  },
  {
    "name": "TEMASEK SECONDARY SCHOOL",
    "lat": 1.31591673150616,
    "lon": 103.947564112022,
    "level": "SECONDARY (S1-S5)"
  },
  {
    "name": "TOWNSVILLE PRIMARY SCHOOL",
    "lat": 1.35994649477568,
    "lon": 103.853768994775,
    "level": "PRIMARY"
  },
  {
    "name": "UNITY PRIMARY SCHOOL",
    "lat": 1.40278303219036,
    "lon": 103.746801233973,
    "level": "PRIMARY"
  },
  {
    "name": "UNITY SECONDARY SCHOOL",
    "lat": 1.40001524119441,
    "lon": 103.74602091483,
    "level": "SECONDARY (S1-S5)"
  },
  {
    "name": "VALOUR PRIMARY SCHOOL",
    "lat": 1.40744168163777,
    "lon": 103.898762173662,
    "level": "PRIMARY"
  },
  {
    "name": "VICTORIA JUNIOR COLLEGE",
    "lat": 1.30670174177479,
    "lon": 103.919982704149,
    "level": "JUNIOR COLLEGE"
  },
  {
    "name": "VICTORIA SCHOOL",
    "lat": 1.3087130270751,
    "lon": 103.927980966639,
    "level": "SECONDARY (S1-S4)"
  },
  {
    "name": "WATERWAY PRIMARY SCHOOL",
    "lat": 1.39889261226315,
    "lon": 103.918585924582,
    "level": "PRIMARY"
  },
  {
    "name": "WELLINGTON PRIMARY SCHOOL",
    "lat": 1.45168517614776,
    "lon": 103.822516208087,
    "level": "PRIMARY"
  },
  {
    "name": "WEST GROVE PRIMARY SCHOOL",
    "lat": 1.34471211768915,
    "lon": 103.698964212988,
    "level": "PRIMARY"
  },
  {
    "name": "WEST SPRING PRIMARY SCHOOL",
    "lat": 1.38896618016838,
    "lon": 103.766256126816,
    "level": "PRIMARY"
  },
  {
    "name": "WEST SPRING SECONDARY SCHOOL",
    "lat": 1.38782283303782,
    "lon": 103.760128840155,
    "level": "SECONDARY (S1-S5)"
  },
  {
    "name": "WEST VIEW PRIMARY SCHOOL",
    "lat": 1.38378546546228,
    "lon": 103.760273432258,
    "level": "PRIMARY"
  },
  {
    "name": "WESTWOOD PRIMARY SCHOOL",
    "lat": 1.3477109654722,
    "lon": 103.700467520791,
    "level": "PRIMARY"
  },
  {
    "name": "WESTWOOD SECONDARY SCHOOL",
    "lat": 1.35373698510994,
    "lon": 103.701772102139,
    "level": "SECONDARY (S1-S5)"
  },
  {
    "name": "WHITE SANDS PRIMARY SCHOOL",
    "lat": 1.36563610941695,
    "lon": 103.960861814678,
    "level": "PRIMARY"
  },
  {
    "name": "WHITLEY SECONDARY SCHOOL",
    "lat": 1.35505208480649,
    "lon": 103.842552378136,
    "level": "SECONDARY (S1-S5)"
  },
  {
    "name": "WOODGROVE PRIMARY SCHOOL",
    "lat": 1.43273620725049,
    "lon": 103.79023031392,
    "level": "PRIMARY"
  },
  {
    "name": "WOODGROVE SECONDARY SCHOOL",
    "lat": 1.42831828137013,
    "lon": 103.79604758539,
    "level": "SECONDARY (S1-S5)"
  },
  {
    "name": "WOODLANDS PRIMARY SCHOOL",
    "lat": 1.43658270720199,
    "lon": 103.791791282236,
    "level": "PRIMARY"
  },
  {
    "name": "WOODLANDS RING PRIMARY SCHOOL",
    "lat": 1.43485179380236,
    "lon": 103.79741434351,
    "level": "PRIMARY"
  },
  {
    "name": "WOODLANDS RING SECONDARY SCHOOL",
    "lat": 1.43070452883799,
    "lon": 103.777625748539,
    "level": "SECONDARY (S1-S5)"
  },
  {
    "name": "WOODLANDS SECONDARY SCHOOL",
    "lat": 1.43912528141356,
    "lon": 103.774586410437,
    "level": "SECONDARY (S1-S5)"
  },
  {
    "name": "XINGHUA PRIMARY SCHOOL",
    "lat": 1.35799653782463,
    "lon": 103.890216355459,
    "level": "PRIMARY"
  },
  {
    "name": "XINGNAN PRIMARY SCHOOL",
    "lat": 1.34270639669225,
    "lon": 103.687588478681,
    "level": "PRIMARY"
  },
  {
    "name": "XINMIN PRIMARY SCHOOL",
    "lat": 1.37176798317468,
    "lon": 103.88280991785,
    "level": "PRIMARY"
  },
  {
    "name": "XINMIN SECONDARY SCHOOL",
    "lat": 1.37255884700002,
    "lon": 103.88305161385,
    "level": "SECONDARY (S1-S5)"
  },
  {
    "name": "XISHAN PRIMARY SCHOOL",
    "lat": 1.43347186925064,
    "lon": 103.837755319448,
    "level": "PRIMARY"
  },
  {
    "name": "YANGZHENG PRIMARY SCHOOL",
    "lat": 1.34864575840923,
    "lon": 103.868595527042,
    "level": "PRIMARY"
  },
  {
    "name": "YEW TEE PRIMARY SCHOOL",
    "lat": 1.39672603497195,
    "lon": 103.751817992962,
    "level": "PRIMARY"
  },
  {
    "name": "YIO CHU KANG PRIMARY SCHOOL",
    "lat": 1.37793264345276,
    "lon": 103.885643682171,
    "level": "PRIMARY"
  },
  {
    "name": "YIO CHU KANG SECONDARY SCHOOL",
    "lat": 1.37797597740925,
    "lon": 103.84213696352,
    "level": "SECONDARY (S1-S5)"
  },
  {
    "name": "YISHUN INNOVA JUNIOR COLLEGE",
    "lat": 1.42426692572335,
    "lon": 103.83003171149,
    "level": "JUNIOR COLLEGE"
  },
  {
    "name": "YISHUN PRIMARY SCHOOL",
    "lat": 1.43397617334964,
    "lon": 103.834050796658,
    "level": "PRIMARY"
  },
  {
    "name": "YISHUN SECONDARY SCHOOL",
    "lat": 1.42813324276086,
    "lon": 103.828764316679,
    "level": "SECONDARY (S1-S5)"
  },
  {
    "name": "YISHUN TOWN SECONDARY SCHOOL",
    "lat": 1.43232156717386,
    "lon": 103.838094226361,
    "level": "SECONDARY (S1-S5)"
  },
  {
    "name": "YU NENG PRIMARY SCHOOL",
    "lat": 1.33398037894072,
    "lon": 103.932015036296,
    "level": "PRIMARY"
  },
  {
    "name": "YUAN CHING SECONDARY SCHOOL",
    "lat": 1.34200635764467,
    "lon": 103.72089870437,
    "level": "SECONDARY (S1-S5)"
  },
  {
    "name": "YUHUA PRIMARY SCHOOL",
    "lat": 1.34291981622016,
    "lon": 103.740861148879,
    "level": "PRIMARY"
  },
  {
    "name": "YUHUA SECONDARY SCHOOL",
    "lat": 1.34718626876968,
    "lon": 103.722687235839,
    "level": "SECONDARY (S1-S5)"
  },
  {
    "name": "YUMIN PRIMARY SCHOOL",
    "lat": 1.35131569890862,
    "lon": 103.950551091373,
    "level": "PRIMARY"
  },
  {
    "name": "YUSOF ISHAK SECONDARY SCHOOL",
    "lat": 1.40693702458178,
    "lon": 103.896275149571,
    "level": "SECONDARY (S1-S5)"
  },
  {
    "name": "YUYING SECONDARY SCHOOL",
    "lat": 1.35713595302467,
    "lon": 103.890194755287,
    "level": "SECONDARY (S1-S5)"
  },
  {
    "name": "ZHANGDE PRIMARY SCHOOL",
    "lat": 1.28421153855474,
    "lon": 103.825951884637,
    "level": "PRIMARY"
  },
  {
    "name": "ZHENGHUA PRIMARY SCHOOL",
    "lat": 1.37942873617052,
    "lon": 103.76970317201,
    "level": "PRIMARY"
  },
  {
    "name": "ZHENGHUA SECONDARY SCHOOL",
    "lat": 1.38836583415352,
    "lon": 103.765510638527,
    "level": "SECONDARY (S1-S5)"
  },
  {
    "name": "ZHONGHUA PRIMARY SCHOOL",
    "lat": 1.36026072476019,
    "lon": 103.869712517383,
    "level": "PRIMARY"
  },
  {
    "name": "ZHONGHUA SECONDARY SCHOOL",
    "lat": 1.34840720846208,
    "lon": 103.869430481414,
    "level": "SECONDARY (S1-S5)"
  }
]